Time, Roll, Pitch, Yaw, Altitude
0,0,-90,0,0
10,0,-90,7.2,0.99954
20,0,-90,14.4,1.99816
30,0,-90,21.6,2.99586
40,0,-90,28.8,3.99264
50,0,-90,36,4.9885
60,0,-90,43.2,5.98344
70,0,-90,50.4,6.97746
80,0,-90,57.6,7.97056
90,0,-90,64.8,8.96274
100,0,-90,72,9.954
110,0,-90,79.2,10.94434
120,0,-90,86.4,11.93376
130,0,-90,93.6,12.92226
140,0,-90,100.8,13.90984
150,0,-90,108,14.8965
160,0,-90,115.2,15.88224
170,0,-90,122.4,16.86706
180,0,-90,129.6,17.85096
190,0,-90,136.8,18.83394
200,0,-90,144,19.816
210,0,-90,151.2,20.79714
220,0,-90,158.4,21.77736
230,0,-90,165.6,22.75666
240,0,-90,172.8,23.73504
250,0,-90,180,24.7125
260,0,-90,187.2,25.68904
270,0,-90,194.4,26.66466
280,0,-90,201.6,27.63936
290,0,-90,208.8,28.61314
300,0,-90,216,29.586
310,0,-90,223.2,30.55794
320,0,-90,230.4,31.52896
330,0,-90,237.6,32.49906
340,0,-90,244.8,33.46824
350,0,-90,252,34.4365
360,0,-90,259.2,35.40384
370,0,-90,266.4,36.37026
380,0,-90,273.6,37.33576
390,0,-90,280.8,38.30034
400,0,-90,288,39.264
410,0,-90,295.2,40.22674
420,0,-90,302.4,41.18856
430,0,-90,309.6,42.14946
440,0,-90,316.8,43.10944
450,0,-90,324,44.0685
460,0,-90,331.2,45.02664
470,0,-90,338.4,45.98386
480,0,-90,345.6,46.94016
490,0,-90,352.8,47.89554
500,0,-90,0,48.85
510,0,-90,7.2,49.80354
520,0,-90,14.4,50.75616
530,0,-90,21.6,51.70786
540,0,-90,28.8,52.65864
550,0,-90,36,53.6085
560,0,-90,43.2,54.55744
570,0,-90,50.4,55.50546
580,0,-90,57.6,56.45256
590,0,-90,64.8,57.39874
600,0,-90,72,58.344
610,0,-90,79.2,59.28834
620,0,-90,86.4,60.23176
630,0,-90,93.6,61.17426
640,0,-90,100.8,62.11584
650,0,-90,108,63.0565
660,0,-90,115.2,63.99624
670,0,-90,122.4,64.93506
680,0,-90,129.6,65.87296
690,0,-90,136.8,66.80994
700,0,-90,144,67.746
710,0,-90,151.2,68.68114
720,0,-90,158.4,69.61536
730,0,-90,165.6,70.54866
740,0,-90,172.8,71.48104
750,0,-90,180,72.4125
760,0,-90,187.2,73.34304
770,0,-90,194.4,74.27266
780,0,-90,201.6,75.20136
790,0,-90,208.8,76.12914
800,0,-90,216,77.056
810,0,-90,223.2,77.98194
820,0,-90,230.4,78.90696
830,0,-90,237.6,79.83106
840,0,-90,244.8,80.75424
850,0,-90,252,81.6765
860,0,-90,259.2,82.59784
870,0,-90,266.4,83.51826
880,0,-90,273.6,84.43776
890,0,-90,280.8,85.35634
900,0,-90,288,86.274
910,0,-90,295.2,87.19074
920,0,-90,302.4,88.10656
930,0,-90,309.6,89.02146
940,0,-90,316.8,89.93544
950,0,-90,324,90.8485
960,0,-90,331.2,91.76064
970,0,-90,338.4,92.67186
980,0,-90,345.6,93.58216
990,0,-90,352.8,94.49154
1000,0,-90,0,95.4
1010,0,-90,7.2,96.30754
1020,0,-90,14.4,97.21416
1030,0,-90,21.6,98.11986
1040,0,-90,28.8,99.02464
1050,0,-90,36,99.9285
1060,0,-90,43.2,100.83144
1070,0,-90,50.4,101.73346
1080,0,-90,57.6,102.63456
1090,0,-90,64.8,103.53474
1100,0,-90,72,104.434
1110,0,-90,79.2,105.33234
1120,0,-90,86.4,106.22976
1130,0,-90,93.6,107.12626
1140,0,-90,100.8,108.02184
1150,0,-90,108,108.9165
1160,0,-90,115.2,109.81024
1170,0,-90,122.4,110.70306
1180,0,-90,129.6,111.59496
1190,0,-90,136.8,112.48594
1200,0,-90,144,113.376
1210,0,-90,151.2,114.26514
1220,0,-90,158.4,115.15336
1230,0,-90,165.6,116.04066
1240,0,-90,172.8,116.92704
1250,0,-90,180,117.8125
1260,0,-90,187.2,118.69704
1270,0,-90,194.4,119.58066
1280,0,-90,201.6,120.46336
1290,0,-90,208.8,121.34514
1300,0,-90,216,122.226
1310,0,-90,223.2,123.10594
1320,0,-90,230.4,123.98496
1330,0,-90,237.6,124.86306
1340,0,-90,244.8,125.74024
1350,0,-90,252,126.6165
1360,0,-90,259.2,127.49184
1370,0,-90,266.4,128.36626
1380,0,-90,273.6,129.23976
1390,0,-90,280.8,130.11234
1400,0,-90,288,130.984
1410,0,-90,295.2,131.85474
1420,0,-90,302.4,132.72456
1430,0,-90,309.6,133.59346
1440,0,-90,316.8,134.46144
1450,0,-90,324,135.3285
1460,0,-90,331.2,136.19464
1470,0,-90,338.4,137.05986
1480,0,-90,345.6,137.92416
1490,0,-90,352.8,138.78754
1500,0,-90,0,139.65
1510,0,-90,7.2,140.51154
1520,0,-90,14.4,141.37216
1530,0,-90,21.6,142.23186
1540,0,-90,28.8,143.09064
1550,0,-90,36,143.9485
1560,0,-90,43.2,144.80544
1570,0,-90,50.4,145.66146
1580,0,-90,57.6,146.51656
1590,0,-90,64.8,147.37074
1600,0,-90,72,148.224
1610,0,-90,79.2,149.07634
1620,0,-90,86.4,149.92776
1630,0,-90,93.6,150.77826
1640,0,-90,100.8,151.62784
1650,0,-90,108,152.4765
1660,0,-90,115.2,153.32424
1670,0,-90,122.4,154.17106
1680,0,-90,129.6,155.01696
1690,0,-90,136.8,155.86194
1700,0,-90,144,156.706
1710,0,-90,151.2,157.54914
1720,0,-90,158.4,158.39136
1730,0,-90,165.6,159.23266
1740,0,-90,172.8,160.07304
1750,0,-90,180,160.9125
1760,0,-90,187.2,161.75104
1770,0,-90,194.4,162.58866
1780,0,-90,201.6,163.42536
1790,0,-90,208.8,164.26114
1800,0,-90,216,165.096
1810,0,-90,223.2,165.92994
1820,0,-90,230.4,166.76296
1830,0,-90,237.6,167.59506
1840,0,-90,244.8,168.42624
1850,0,-90,252,169.2565
1860,0,-90,259.2,170.08584
1870,0,-90,266.4,170.91426
1880,0,-90,273.6,171.74176
1890,0,-90,280.8,172.56834
1900,0,-90,288,173.394
1910,0,-90,295.2,174.21874
1920,0,-90,302.4,175.04256
1930,0,-90,309.6,175.86546
1940,0,-90,316.8,176.68744
1950,0,-90,324,177.5085
1960,0,-90,331.2,178.32864
1970,0,-90,338.4,179.14786
1980,0,-90,345.6,179.96616
1990,0,-90,352.8,180.78354
2000,0,-90,0,181.6
2010,0,-90,7.2,182.41554
2020,0,-90,14.4,183.23016
2030,0,-90,21.6,184.04386
2040,0,-90,28.8,184.85664
2050,0,-90,36,185.6685
2060,0,-90,43.2,186.47944
2070,0,-90,50.4,187.28946
2080,0,-90,57.6,188.09856
2090,0,-90,64.8,188.90674
2100,0,-90,72,189.714
2110,0,-90,79.2,190.52034
2120,0,-90,86.4,191.32576
2130,0,-90,93.6,192.13026
2140,0,-90,100.8,192.93384
2150,0,-90,108,193.7365
2160,0,-90,115.2,194.53824
2170,0,-90,122.4,195.33906
2180,0,-90,129.6,196.13896
2190,0,-90,136.8,196.93794
2200,0,-90,144,197.736
2210,0,-90,151.2,198.53314
2220,0,-90,158.4,199.32936
2230,0,-90,165.6,200.12466
2240,0,-90,172.8,200.91904
2250,0,-90,180,201.7125
2260,0,-90,187.2,202.50504
2270,0,-90,194.4,203.29666
2280,0,-90,201.6,204.08736
2290,0,-90,208.8,204.87714
2300,0,-90,216,205.666
2310,0,-90,223.2,206.45394
2320,0,-90,230.4,207.24096
2330,0,-90,237.6,208.02706
2340,0,-90,244.8,208.81224
2350,0,-90,252,209.5965
2360,0,-90,259.2,210.37984
2370,0,-90,266.4,211.16226
2380,0,-90,273.6,211.94376
2390,0,-90,280.8,212.72434
2400,0,-90,288,213.504
2410,0,-90,295.2,214.28274
2420,0,-90,302.4,215.06056
2430,0,-90,309.6,215.83746
2440,0,-90,316.8,216.61344
2450,0,-90,324,217.3885
2460,0,-90,331.2,218.16264
2470,0,-90,338.4,218.93586
2480,0,-90,345.6,219.70816
2490,0,-90,352.8,220.47954
2500,0,-90,0,221.25
2510,0,-90,7.2,222.01954
2520,0,-90,14.4,222.78816
2530,0,-90,21.6,223.55586
2540,0,-90,28.8,224.32264
2550,0,-90,36,225.0885
2560,0,-90,43.2,225.85344
2570,0,-90,50.4,226.61746
2580,0,-90,57.6,227.38056
2590,0,-90,64.8,228.14274
2600,0,-90,72,228.904
2610,0,-90,79.2,229.66434
2620,0,-90,86.4,230.42376
2630,0,-90,93.6,231.18226
2640,0,-90,100.8,231.93984
2650,0,-90,108,232.6965
2660,0,-90,115.2,233.45224
2670,0,-90,122.4,234.20706
2680,0,-90,129.6,234.96096
2690,0,-90,136.8,235.71394
2700,0,-90,144,236.466
2710,0,-90,151.2,237.21714
2720,0,-90,158.4,237.96736
2730,0,-90,165.6,238.71666
2740,0,-90,172.8,239.46504
2750,0,-90,180,240.2125
2760,0,-90,187.2,240.95904
2770,0,-90,194.4,241.70466
2780,0,-90,201.6,242.44936
2790,0,-90,208.8,243.19314
2800,0,-90,216,243.936
2810,0,-90,223.2,244.67794
2820,0,-90,230.4,245.41896
2830,0,-90,237.6,246.15906
2840,0,-90,244.8,246.89824
2850,0,-90,252,247.6365
2860,0,-90,259.2,248.37384
2870,0,-90,266.4,249.11026
2880,0,-90,273.6,249.84576
2890,0,-90,280.8,250.58034
2900,0,-90,288,251.314
2910,0,-90,295.2,252.04674
2920,0,-90,302.4,252.77856
2930,0,-90,309.6,253.50946
2940,0,-90,316.8,254.23944
2950,0,-90,324,254.9685
2960,0,-90,331.2,255.69664
2970,0,-90,338.4,256.42386
2980,0,-90,345.6,257.15016
2990,0,-90,352.8,257.87554
3000,0,-90,0,258.6
3010,0,-90,7.2,259.32354
3020,0,-90,14.4,260.04616
3030,0,-90,21.6,260.76786
3040,0,-90,28.8,261.48864
3050,0,-90,36,262.2085
3060,0,-90,43.2,262.92744
3070,0,-90,50.4,263.64546
3080,0,-90,57.6,264.36256
3090,0,-90,64.8,265.07874
3100,0,-90,72,265.794
3110,0,-90,79.2,266.50834
3120,0,-90,86.4,267.22176
3130,0,-90,93.6,267.93426
3140,0,-90,100.8,268.64584
3150,0,-90,108,269.3565
3160,0,-90,115.2,270.06624
3170,0,-90,122.4,270.77506
3180,0,-90,129.6,271.48296
3190,0,-90,136.8,272.18994
3200,0,-90,144,272.896
3210,0,-90,151.2,273.60114
3220,0,-90,158.4,274.30536
3230,0,-90,165.6,275.00866
3240,0,-90,172.8,275.71104
3250,0,-90,180,276.4125
3260,0,-90,187.2,277.11304
3270,0,-90,194.4,277.81266
3280,0,-90,201.6,278.51136
3290,0,-90,208.8,279.20914
3300,0,-90,216,279.906
3310,0,-90,223.2,280.60194
3320,0,-90,230.4,281.29696
3330,0,-90,237.6,281.99106
3340,0,-90,244.8,282.68424
3350,0,-90,252,283.3765
3360,0,-90,259.2,284.06784
3370,0,-90,266.4,284.75826
3380,0,-90,273.6,285.44776
3390,0,-90,280.8,286.13634
3400,0,-90,288,286.824
3410,0,-90,295.2,287.51074
3420,0,-90,302.4,288.19656
3430,0,-90,309.6,288.88146
3440,0,-90,316.8,289.56544
3450,0,-90,324,290.2485
3460,0,-90,331.2,290.93064
3470,0,-90,338.4,291.61186
3480,0,-90,345.6,292.29216
3490,0,-90,352.8,292.97154
3500,0,-90,0,293.65
3510,0,-90,7.2,294.32754
3520,0,-90,14.4,295.00416
3530,0,-90,21.6,295.67986
3540,0,-90,28.8,296.35464
3550,0,-90,36,297.0285
3560,0,-90,43.2,297.70144
3570,0,-90,50.4,298.37346
3580,0,-90,57.6,299.04456
3590,0,-90,64.8,299.71474
3600,0,-90,72,300.384
3610,0,-90,79.2,301.05234
3620,0,-90,86.4,301.71976
3630,0,-90,93.6,302.38626
3640,0,-90,100.8,303.05184
3650,0,-90,108,303.7165
3660,0,-90,115.2,304.38024
3670,0,-90,122.4,305.04306
3680,0,-90,129.6,305.70496
3690,0,-90,136.8,306.36594
3700,0,-90,144,307.026
3710,0,-90,151.2,307.68514
3720,0,-90,158.4,308.34336
3730,0,-90,165.6,309.00066
3740,0,-90,172.8,309.65704
3750,0,-90,180,310.3125
3760,0,-90,187.2,310.96704
3770,0,-90,194.4,311.62066
3780,0,-90,201.6,312.27336
3790,0,-90,208.8,312.92514
3800,0,-90,216,313.576
3810,0,-90,223.2,314.22594
3820,0,-90,230.4,314.87496
3830,0,-90,237.6,315.52306
3840,0,-90,244.8,316.17024
3850,0,-90,252,316.8165
3860,0,-90,259.2,317.46184
3870,0,-90,266.4,318.10626
3880,0,-90,273.6,318.74976
3890,0,-90,280.8,319.39234
3900,0,-90,288,320.034
3910,0,-90,295.2,320.67474
3920,0,-90,302.4,321.31456
3930,0,-90,309.6,321.95346
3940,0,-90,316.8,322.59144
3950,0,-90,324,323.2285
3960,0,-90,331.2,323.86464
3970,0,-90,338.4,324.49986
3980,0,-90,345.6,325.13416
3990,0,-90,352.8,325.76754
4000,0,-90,0,326.4
4010,0,-90,7.2,327.03154
4020,0,-90,14.4,327.66216
4030,0,-90,21.6,328.29186
4040,0,-90,28.8,328.92064
4050,0,-90,36,329.5485
4060,0,-90,43.2,330.17544
4070,0,-90,50.4,330.80146
4080,0,-90,57.6,331.42656
4090,0,-90,64.8,332.05074
4100,0,-90,72,332.674
4110,0,-90,79.2,333.29634
4120,0,-90,86.4,333.91776
4130,0,-90,93.6,334.53826
4140,0,-90,100.8,335.15784
4150,0,-90,108,335.7765
4160,0,-90,115.2,336.39424
4170,0,-90,122.4,337.01106
4180,0,-90,129.6,337.62696
4190,0,-90,136.8,338.24194
4200,0,-90,144,338.856
4210,0,-90,151.2,339.46914
4220,0,-90,158.4,340.08136
4230,0,-90,165.6,340.69266
4240,0,-90,172.8,341.30304
4250,0,-90,180,341.9125
4260,0,-90,187.2,342.52104
4270,0,-90,194.4,343.12866
4280,0,-90,201.6,343.73536
4290,0,-90,208.8,344.34114
4300,0,-90,216,344.946
4310,0,-90,223.2,345.54994
4320,0,-90,230.4,346.15296
4330,0,-90,237.6,346.75506
4340,0,-90,244.8,347.35624
4350,0,-90,252,347.9565
4360,0,-90,259.2,348.55584
4370,0,-90,266.4,349.15426
4380,0,-90,273.6,349.75176
4390,0,-90,280.8,350.34834
4400,0,-90,288,350.944
4410,0,-90,295.2,351.53874
4420,0,-90,302.4,352.13256
4430,0,-90,309.6,352.72546
4440,0,-90,316.8,353.31744
4450,0,-90,324,353.9085
4460,0,-90,331.2,354.49864
4470,0,-90,338.4,355.08786
4480,0,-90,345.6,355.67616
4490,0,-90,352.8,356.26354
4500,0,-90,0,356.85
4510,0,-90,7.2,357.43554
4520,0,-90,14.4,358.02016
4530,0,-90,21.6,358.60386
4540,0,-90,28.8,359.18664
4550,0,-90,36,359.7685
4560,0,-90,43.2,360.34944
4570,0,-90,50.4,360.92946
4580,0,-90,57.6,361.50856
4590,0,-90,64.8,362.08674
4600,0,-90,72,362.664
4610,0,-90,79.2,363.24034
4620,0,-90,86.4,363.81576
4630,0,-90,93.6,364.39026
4640,0,-90,100.8,364.96384
4650,0,-90,108,365.5365
4660,0,-90,115.2,366.10824
4670,0,-90,122.4,366.67906
4680,0,-90,129.6,367.24896
4690,0,-90,136.8,367.81794
4700,0,-90,144,368.386
4710,0,-90,151.2,368.95314
4720,0,-90,158.4,369.51936
4730,0,-90,165.6,370.08466
4740,0,-90,172.8,370.64904
4750,0,-90,180,371.2125
4760,0,-90,187.2,371.77504
4770,0,-90,194.4,372.33666
4780,0,-90,201.6,372.89736
4790,0,-90,208.8,373.45714
4800,0,-90,216,374.016
4810,0,-90,223.2,374.57394
4820,0,-90,230.4,375.13096
4830,0,-90,237.6,375.68706
4840,0,-90,244.8,376.24224
4850,0,-90,252,376.7965
4860,0,-90,259.2,377.34984
4870,0,-90,266.4,377.90226
4880,0,-90,273.6,378.45376
4890,0,-90,280.8,379.00434
4900,0,-90,288,379.554
4910,0,-90,295.2,380.10274
4920,0,-90,302.4,380.65056
4930,0,-90,309.6,381.19746
4940,0,-90,316.8,381.74344
4950,0,-90,324,382.2885
4960,0,-90,331.2,382.83264
4970,0,-90,338.4,383.37586
4980,0,-90,345.6,383.91816
4990,0,-90,352.8,384.45954
5000,0,-90,0,385
5010,0,-90,7.2,385.53954
5020,0,-90,14.4,386.07816
5030,0,-90,21.6,386.61586
5040,0,-90,28.8,387.15264
5050,0,-90,36,387.6885
5060,0,-90,43.2,388.22344
5070,0,-90,50.4,388.75746
5080,0,-90,57.6,389.29056
5090,0,-90,64.8,389.82274
5100,0,-90,72,390.354
5110,0,-90,79.2,390.88434
5120,0,-90,86.4,391.41376
5130,0,-90,93.6,391.94226
5140,0,-90,100.8,392.46984
5150,0,-90,108,392.9965
5160,0,-90,115.2,393.52224
5170,0,-90,122.4,394.04706
5180,0,-90,129.6,394.57096
5190,0,-90,136.8,395.09394
5200,0,-90,144,395.616
5210,0,-90,151.2,396.13714
5220,0,-90,158.4,396.65736
5230,0,-90,165.6,397.17666
5240,0,-90,172.8,397.69504
5250,0,-90,180,398.2125
5260,0,-90,187.2,398.72904
5270,0,-90,194.4,399.24466
5280,0,-90,201.6,399.75936
5290,0,-90,208.8,400.27314
5300,0,-90,216,400.786
5310,0,-90,223.2,401.29794
5320,0,-90,230.4,401.80896
5330,0,-90,237.6,402.31906
5340,0,-90,244.8,402.82824
5350,0,-90,252,403.3365
5360,0,-90,259.2,403.84384
5370,0,-90,266.4,404.35026
5380,0,-90,273.6,404.85576
5390,0,-90,280.8,405.36034
5400,0,-90,288,405.864
5410,0,-90,295.2,406.36674
5420,0,-90,302.4,406.86856
5430,0,-90,309.6,407.36946
5440,0,-90,316.8,407.86944
5450,0,-90,324,408.3685
5460,0,-90,331.2,408.86664
5470,0,-90,338.4,409.36386
5480,0,-90,345.6,409.86016
5490,0,-90,352.8,410.35554
5500,0,-90,0,410.85
5510,0,-90,7.2,411.34354
5520,0,-90,14.4,411.83616
5530,0,-90,21.6,412.32786
5540,0,-90,28.8,412.81864
5550,0,-90,36,413.3085
5560,0,-90,43.2,413.79744
5570,0,-90,50.4,414.28546
5580,0,-90,57.6,414.77256
5590,0,-90,64.8,415.25874
5600,0,-90,72,415.744
5610,0,-90,79.2,416.22834
5620,0,-90,86.4,416.71176
5630,0,-90,93.6,417.19426
5640,0,-90,100.8,417.67584
5650,0,-90,108,418.1565
5660,0,-90,115.2,418.63624
5670,0,-90,122.4,419.11506
5680,0,-90,129.6,419.59296
5690,0,-90,136.8,420.06994
5700,0,-90,144,420.546
5710,0,-90,151.2,421.02114
5720,0,-90,158.4,421.49536
5730,0,-90,165.6,421.96866
5740,0,-90,172.8,422.44104
5750,0,-90,180,422.9125
5760,0,-90,187.2,423.38304
5770,0,-90,194.4,423.85266
5780,0,-90,201.6,424.32136
5790,0,-90,208.8,424.78914
5800,0,-90,216,425.256
5810,0,-90,223.2,425.72194
5820,0,-90,230.4,426.18696
5830,0,-90,237.6,426.65106
5840,0,-90,244.8,427.11424
5850,0,-90,252,427.5765
5860,0,-90,259.2,428.03784
5870,0,-90,266.4,428.49826
5880,0,-90,273.6,428.95776
5890,0,-90,280.8,429.41634
5900,0,-90,288,429.874
5910,0,-90,295.2,430.33074
5920,0,-90,302.4,430.78656
5930,0,-90,309.6,431.24146
5940,0,-90,316.8,431.69544
5950,0,-90,324,432.1485
5960,0,-90,331.2,432.60064
5970,0,-90,338.4,433.05186
5980,0,-90,345.6,433.50216
5990,0,-90,352.8,433.95154
6000,0,-90,0,434.4
6010,0,-90,7.2,434.84754
6020,0,-90,14.4,435.29416
6030,0,-90,21.6,435.73986
6040,0,-90,28.8,436.18464
6050,0,-90,36,436.6285
6060,0,-90,43.2,437.07144
6070,0,-90,50.4,437.51346
6080,0,-90,57.6,437.95456
6090,0,-90,64.8,438.39474
6100,0,-90,72,438.834
6110,0,-90,79.2,439.27234
6120,0,-90,86.4,439.70976
6130,0,-90,93.6,440.14626
6140,0,-90,100.8,440.58184
6150,0,-90,108,441.0165
6160,0,-90,115.2,441.45024
6170,0,-90,122.4,441.88306
6180,0,-90,129.6,442.31496
6190,0,-90,136.8,442.74594
6200,0,-90,144,443.176
6210,0,-90,151.2,443.60514
6220,0,-90,158.4,444.03336
6230,0,-90,165.6,444.46066
6240,0,-90,172.8,444.88704
6250,0,-90,180,445.3125
6260,0,-90,187.2,445.73704
6270,0,-90,194.4,446.16066
6280,0,-90,201.6,446.58336
6290,0,-90,208.8,447.00514
6300,0,-90,216,447.426
6310,0,-90,223.2,447.84594
6320,0,-90,230.4,448.26496
6330,0,-90,237.6,448.68306
6340,0,-90,244.8,449.10024
6350,0,-90,252,449.5165
6360,0,-90,259.2,449.93184
6370,0,-90,266.4,450.34626
6380,0,-90,273.6,450.75976
6390,0,-90,280.8,451.17234
6400,0,-90,288,451.584
6410,0,-90,295.2,451.99474
6420,0,-90,302.4,452.40456
6430,0,-90,309.6,452.81346
6440,0,-90,316.8,453.22144
6450,0,-90,324,453.6285
6460,0,-90,331.2,454.03464
6470,0,-90,338.4,454.43986
6480,0,-90,345.6,454.84416
6490,0,-90,352.8,455.24754
6500,0,-90,0,455.65
6510,0,-90,7.2,456.05154
6520,0,-90,14.4,456.45216
6530,0,-90,21.6,456.85186
6540,0,-90,28.8,457.25064
6550,0,-90,36,457.6485
6560,0,-90,43.2,458.04544
6570,0,-90,50.4,458.44146
6580,0,-90,57.6,458.83656
6590,0,-90,64.8,459.23074
6600,0,-90,72,459.624
6610,0,-90,79.2,460.01634
6620,0,-90,86.4,460.40776
6630,0,-90,93.6,460.79826
6640,0,-90,100.8,461.18784
6650,0,-90,108,461.5765
6660,0,-90,115.2,461.96424
6670,0,-90,122.4,462.35106
6680,0,-90,129.6,462.73696
6690,0,-90,136.8,463.12194
6700,0,-90,144,463.506
6710,0,-90,151.2,463.88914
6720,0,-90,158.4,464.27136
6730,0,-90,165.6,464.65266
6740,0,-90,172.8,465.03304
6750,0,-90,180,465.4125
6760,0,-90,187.2,465.79104
6770,0,-90,194.4,466.16866
6780,0,-90,201.6,466.54536
6790,0,-90,208.8,466.92114
6800,0,-90,216,467.296
6810,0,-90,223.2,467.66994
6820,0,-90,230.4,468.04296
6830,0,-90,237.6,468.41506
6840,0,-90,244.8,468.78624
6850,0,-90,252,469.1565
6860,0,-90,259.2,469.52584
6870,0,-90,266.4,469.89426
6880,0,-90,273.6,470.26176
6890,0,-90,280.8,470.62834
6900,0,-90,288,470.994
6910,0,-90,295.2,471.35874
6920,0,-90,302.4,471.72256
6930,0,-90,309.6,472.08546
6940,0,-90,316.8,472.44744
6950,0,-90,324,472.8085
6960,0,-90,331.2,473.16864
6970,0,-90,338.4,473.52786
6980,0,-90,345.6,473.88616
6990,0,-90,352.8,474.24354
7000,0,-90,0,474.6
7010,0,-90,7.2,474.95554
7020,0,-90,14.4,475.31016
7030,0,-90,21.6,475.66386
7040,0,-90,28.8,476.01664
7050,0,-90,36,476.3685
7060,0,-90,43.2,476.71944
7070,0,-90,50.4,477.06946
7080,0,-90,57.6,477.41856
7090,0,-90,64.8,477.76674
7100,0,-90,72,478.114
7110,0,-90,79.2,478.46034
7120,0,-90,86.4,478.80576
7130,0,-90,93.6,479.15026
7140,0,-90,100.8,479.49384
7150,0,-90,108,479.8365
7160,0,-90,115.2,480.17824
7170,0,-90,122.4,480.51906
7180,0,-90,129.6,480.85896
7190,0,-90,136.8,481.19794
7200,0,-90,144,481.536
7210,0,-90,151.2,481.87314
7220,0,-90,158.4,482.20936
7230,0,-90,165.6,482.54466
7240,0,-90,172.8,482.87904
7250,0,-90,180,483.2125
7260,0,-90,187.2,483.54504
7270,0,-90,194.4,483.87666
7280,0,-90,201.6,484.20736
7290,0,-90,208.8,484.53714
7300,0,-90,216,484.866
7310,0,-90,223.2,485.19394
7320,0,-90,230.4,485.52096
7330,0,-90,237.6,485.84706
7340,0,-90,244.8,486.17224
7350,0,-90,252,486.4965
7360,0,-90,259.2,486.81984
7370,0,-90,266.4,487.14226
7380,0,-90,273.6,487.46376
7390,0,-90,280.8,487.78434
7400,0,-90,288,488.104
7410,0,-90,295.2,488.42274
7420,0,-90,302.4,488.74056
7430,0,-90,309.6,489.05746
7440,0,-90,316.8,489.37344
7450,0,-90,324,489.6885
7460,0,-90,331.2,490.00264
7470,0,-90,338.4,490.31586
7480,0,-90,345.6,490.62816
7490,0,-90,352.8,490.93954
7500,0,-90,0,491.25
7510,0,-90,7.2,491.55954
7520,0,-90,14.4,491.86816
7530,0,-90,21.6,492.17586
7540,0,-90,28.8,492.48264
7550,0,-90,36,492.7885
7560,0,-90,43.2,493.09344
7570,0,-90,50.4,493.39746
7580,0,-90,57.6,493.70056
7590,0,-90,64.8,494.00274
7600,0,-90,72,494.304
7610,0,-90,79.2,494.60434
7620,0,-90,86.4,494.90376
7630,0,-90,93.6,495.20226
7640,0,-90,100.8,495.49984
7650,0,-90,108,495.7965
7660,0,-90,115.2,496.09224
7670,0,-90,122.4,496.38706
7680,0,-90,129.6,496.68096
7690,0,-90,136.8,496.97394
7700,0,-90,144,497.266
7710,0,-90,151.2,497.55714
7720,0,-90,158.4,497.84736
7730,0,-90,165.6,498.13666
7740,0,-90,172.8,498.42504
7750,0,-90,180,498.7125
7760,0,-90,187.2,498.99904
7770,0,-90,194.4,499.28466
7780,0,-90,201.6,499.56936
7790,0,-90,208.8,499.85314
7800,0,-90,216,500.136
7810,0,-90,223.2,500.41794
7820,0,-90,230.4,500.69896
7830,0,-90,237.6,500.97906
7840,0,-90,244.8,501.25824
7850,0,-90,252,501.5365
7860,0,-90,259.2,501.81384
7870,0,-90,266.4,502.09026
7880,0,-90,273.6,502.36576
7890,0,-90,280.8,502.64034
7900,0,-90,288,502.914
7910,0,-90,295.2,503.18674
7920,0,-90,302.4,503.45856
7930,0,-90,309.6,503.72946
7940,0,-90,316.8,503.99944
7950,0,-90,324,504.2685
7960,0,-90,331.2,504.53664
7970,0,-90,338.4,504.80386
7980,0,-90,345.6,505.07016
7990,0,-90,352.8,505.33554
8000,0,-90,0,505.6
8010,0,-90,7.2,505.86354
8020,0,-90,14.4,506.12616
8030,0,-90,21.6,506.38786
8040,0,-90,28.8,506.64864
8050,0,-90,36,506.9085
8060,0,-90,43.2,507.16744
8070,0,-90,50.4,507.42546
8080,0,-90,57.6,507.68256
8090,0,-90,64.8,507.93874
8100,0,-90,72,508.194
8110,0,-90,79.2,508.44834
8120,0,-90,86.4,508.70176
8130,0,-90,93.6,508.95426
8140,0,-90,100.8,509.20584
8150,0,-90,108,509.4565
8160,0,-90,115.2,509.70624
8170,0,-90,122.4,509.95506
8180,0,-90,129.6,510.20296
8190,0,-90,136.8,510.44994
8200,0,-90,144,510.696
8210,0,-90,151.2,510.94114
8220,0,-90,158.4,511.18536
8230,0,-90,165.6,511.42866
8240,0,-90,172.8,511.67104
8250,0,-90,180,511.9125
8260,0,-90,187.2,512.15304
8270,0,-90,194.4,512.39266
8280,0,-90,201.6,512.63136
8290,0,-90,208.8,512.86914
8300,0,-90,216,513.106
8310,0,-90,223.2,513.34194
8320,0,-90,230.4,513.57696
8330,0,-90,237.6,513.81106
8340,0,-90,244.8,514.04424
8350,0,-90,252,514.2765
8360,0,-90,259.2,514.50784
8370,0,-90,266.4,514.73826
8380,0,-90,273.6,514.96776
8390,0,-90,280.8,515.19634
8400,0,-90,288,515.424
8410,0,-90,295.2,515.65074
8420,0,-90,302.4,515.87656
8430,0,-90,309.6,516.10146
8440,0,-90,316.8,516.32544
8450,0,-90,324,516.5485
8460,0,-90,331.2,516.77064
8470,0,-90,338.4,516.99186
8480,0,-90,345.6,517.21216
8490,0,-90,352.8,517.43154
8500,0,-90,0,517.65
8510,0,-90,7.2,517.86754
8520,0,-90,14.4,518.08416
8530,0,-90,21.6,518.29986
8540,0,-90,28.8,518.51464
8550,0,-90,36,518.7285
8560,0,-90,43.2,518.94144
8570,0,-90,50.4,519.15346
8580,0,-90,57.6,519.36456
8590,0,-90,64.8,519.57474
8600,0,-90,72,519.784
8610,0,-90,79.2,519.99234
8620,0,-90,86.4,520.19976
8630,0,-90,93.6,520.40626
8640,0,-90,100.8,520.61184
8650,0,-90,108,520.8165
8660,0,-90,115.2,521.02024
8670,0,-90,122.4,521.22306
8680,0,-90,129.6,521.42496
8690,0,-90,136.8,521.62594
8700,0,-90,144,521.826
8710,0,-90,151.2,522.02514
8720,0,-90,158.4,522.22336
8730,0,-90,165.6,522.42066
8740,0,-90,172.8,522.61704
8750,0,-90,180,522.8125
8760,0,-90,187.2,523.00704
8770,0,-90,194.4,523.20066
8780,0,-90,201.6,523.39336
8790,0,-90,208.8,523.58514
8800,0,-90,216,523.776
8810,0,-90,223.2,523.96594
8820,0,-90,230.4,524.15496
8830,0,-90,237.6,524.34306
8840,0,-90,244.8,524.53024
8850,0,-90,252,524.7165
8860,0,-90,259.2,524.90184
8870,0,-90,266.4,525.08626
8880,0,-90,273.6,525.26976
8890,0,-90,280.8,525.45234
8900,0,-90,288,525.634
8910,0,-90,295.2,525.81474
8920,0,-90,302.4,525.99456
8930,0,-90,309.6,526.17346
8940,0,-90,316.8,526.35144
8950,0,-90,324,526.5285
8960,0,-90,331.2,526.70464
8970,0,-90,338.4,526.87986
8980,0,-90,345.6,527.05416
8990,0,-90,352.8,527.22754
9000,0,-90,0,527.4
9010,0,-90,7.2,527.57154
9020,0,-90,14.4,527.74216
9030,0,-90,21.6,527.91186
9040,0,-90,28.8,528.08064
9050,0,-90,36,528.2485
9060,0,-90,43.2,528.41544
9070,0,-90,50.4,528.58146
9080,0,-90,57.6,528.74656
9090,0,-90,64.8,528.91074
9100,0,-90,72,529.074
9110,0,-90,79.2,529.23634
9120,0,-90,86.4,529.39776
9130,0,-90,93.6,529.55826
9140,0,-90,100.8,529.71784
9150,0,-90,108,529.8765
9160,0,-90,115.2,530.03424
9170,0,-90,122.4,530.19106
9180,0,-90,129.6,530.34696
9190,0,-90,136.8,530.50194
9200,0,-90,144,530.656
9210,0,-90,151.2,530.80914
9220,0,-90,158.4,530.96136
9230,0,-90,165.6,531.11266
9240,0,-90,172.8,531.26304
9250,0,-90,180,531.4125
9260,0,-90,187.2,531.56104
9270,0,-90,194.4,531.70866
9280,0,-90,201.6,531.85536
9290,0,-90,208.8,532.00114
9300,0,-90,216,532.146
9310,0,-90,223.2,532.28994
9320,0,-90,230.4,532.43296
9330,0,-90,237.6,532.57506
9340,0,-90,244.8,532.71624
9350,0,-90,252,532.8565
9360,0,-90,259.2,532.99584
9370,0,-90,266.4,533.13426
9380,0,-90,273.6,533.27176
9390,0,-90,280.8,533.40834
9400,0,-90,288,533.544
9410,0,-90,295.2,533.67874
9420,0,-90,302.4,533.81256
9430,0,-90,309.6,533.94546
9440,0,-90,316.8,534.07744
9450,0,-90,324,534.2085
9460,0,-90,331.2,534.33864
9470,0,-90,338.4,534.46786
9480,0,-90,345.6,534.59616
9490,0,-90,352.8,534.72354
9500,0,-90,0,534.85
9510,0,-90,7.2,534.97554
9520,0,-90,14.4,535.10016
9530,0,-90,21.6,535.22386
9540,0,-90,28.8,535.34664
9550,0,-90,36,535.4685
9560,0,-90,43.2,535.58944
9570,0,-90,50.4,535.70946
9580,0,-90,57.6,535.82856
9590,0,-90,64.8,535.94674
9600,0,-90,72,536.064
9610,0,-90,79.2,536.18034
9620,0,-90,86.4,536.29576
9630,0,-90,93.6,536.41026
9640,0,-90,100.8,536.52384
9650,0,-90,108,536.6365
9660,0,-90,115.2,536.74824
9670,0,-90,122.4,536.85906
9680,0,-90,129.6,536.96896
9690,0,-90,136.8,537.07794
9700,0,-90,144,537.186
9710,0,-90,151.2,537.29314
9720,0,-90,158.4,537.39936
9730,0,-90,165.6,537.50466
9740,0,-90,172.8,537.60904
9750,0,-90,180,537.7125
9760,0,-90,187.2,537.81504
9770,0,-90,194.4,537.91666
9780,0,-90,201.6,538.01736
9790,0,-90,208.8,538.11714
9800,0,-90,216,538.216
9810,0,-90,223.2,538.31394
9820,0,-90,230.4,538.41096
9830,0,-90,237.6,538.50706
9840,0,-90,244.8,538.60224
9850,0,-90,252,538.6965
9860,0,-90,259.2,538.78984
9870,0,-90,266.4,538.88226
9880,0,-90,273.6,538.97376
9890,0,-90,280.8,539.06434
9900,0,-90,288,539.154
9910,0,-90,295.2,539.24274
9920,0,-90,302.4,539.33056
9930,0,-90,309.6,539.41746
9940,0,-90,316.8,539.50344
9950,0,-90,324,539.5885
9960,0,-90,331.2,539.67264
9970,0,-90,338.4,539.75586
9980,0,-90,345.6,539.83816
9990,0,-89,352.8,539.91954
10000,0,-88,0,540
10010,0,-87,7.2,540.07954
10020,0,-86,14.4,540.15816
10030,0,-85,21.6,540.23586
10040,0,-84,28.8,540.31264
10050,0,-83,36,540.3885
10060,0,-82,43.2,540.46344
10070,0,-81,50.4,540.53746
10080,0,-80,57.6,540.61056
10090,0,-79,64.8,540.68274
10100,0,-78,72,540.754
10110,0,-77,79.2,540.82434
10120,0,-76,86.4,540.89376
10130,0,-75,93.6,540.96226
10140,0,-74,100.8,541.02984
10150,0,-73,108,541.0965
10160,0,-72,115.2,541.16224
10170,0,-71,122.4,541.22706
10180,0,-70,129.6,541.29096
10190,0,-69,136.8,541.35394
10200,0,-68,144,541.416
10210,0,-67,151.2,541.47714
10220,0,-66,158.4,541.53736
10230,0,-65,165.6,541.59666
10240,0,-64,172.8,541.65504
10250,0,-63,180,541.7125
10260,0,-62,187.2,541.76904
10270,0,-61,194.4,541.82466
10280,0,-60,201.6,541.87936
10290,0,-59,208.8,541.93314
10300,0,-58,216,541.986
10310,0,-57,223.2,542.03794
10320,0,-56,230.4,542.08896
10330,0,-55,237.6,542.13906
10340,0,-54,244.8,542.18824
10350,0,-53,252,542.2365
10360,0,-52,259.2,542.28384
10370,0,-51,266.4,542.33026
10380,0,-50,273.6,542.37576
10390,0,-49,280.8,542.42034
10400,0,-48,288,542.464
10410,0,-47,295.2,542.50674
10420,0,-46,302.4,542.54856
10430,0,-45,309.6,542.58946
10440,0,-44,316.8,542.62944
10450,0,-43,324,542.6685
10460,0,-42,331.2,542.70664
10470,0,-41,338.4,542.74386
10480,0,-40,345.6,542.78016
10490,0,-39,352.8,542.81554
10500,0,-38,0,542.85
10510,0,-37,7.2,542.88354
10520,0,-36,14.4,542.91616
10530,0,-35,21.6,542.94786
10540,0,-34,28.8,542.97864
10550,0,-33,36,543.0085
10560,0,-32,43.2,543.03744
10570,0,-31,50.4,543.06546
10580,0,-30,57.6,543.09256
10590,0,-29,64.8,543.11874
10600,0,-28,72,543.144
10610,0,-27,79.2,543.16834
10620,0,-26,86.4,543.19176
10630,0,-25,93.6,543.21426
10640,0,-24,100.8,543.23584
10650,0,-23,108,543.2565
10660,0,-22,115.2,543.27624
10670,0,-21,122.4,543.29506
10680,0,-20,129.6,543.31296
10690,0,-19,136.8,543.32994
10700,0,-18,144,543.346
10710,0,-17,151.2,543.36114
10720,0,-16,158.4,543.37536
10730,0,-15,165.6,543.38866
10740,0,-14,172.8,543.40104
10750,0,-13,180,543.4125
10760,0,-12,187.2,543.42304
10770,0,-11,194.4,543.43266
10780,0,-10,201.6,543.44136
10790,0,-9,208.8,543.44914
10800,0,-8,216,543.456
10810,0,-7,223.2,543.46194
10820,0,-6,230.4,543.46696
10830,0,-5,237.6,543.47106
10840,0,-4,244.8,543.47424
10850,0,-3,252,543.4765
10860,0,-2,259.2,543.47784
10870,0,-1,266.4,543.47826
10880,0,0,273.6,543.47776
10890,0,1,280.8,543.47634
10900,0,2,288,543.474
10910,0,3,295.2,543.47074
10920,0,4,302.4,543.46656
10930,0,5,309.6,543.46146
10940,0,6,316.8,543.45544
10950,0,7,324,543.4485
10960,0,8,331.2,543.44064
10970,0,9,338.4,543.43186
10980,0,10,345.6,543.42216
10990,0,11,352.8,543.41154
11000,0,12,0,543.4
11010,0,13,7.2,543.38754
11020,0,14,14.4,543.37416
11030,0,15,21.6,543.35986
11040,0,16,28.8,543.34464
11050,0,17,36,543.3285
11060,0,18,43.2,543.31144
11070,0,19,50.4,543.29346
11080,0,20,57.6,543.27456
11090,0,21,64.8,543.25474
11100,0,22,72,543.234
11110,0,23,79.2,543.21234
11120,0,24,86.4,543.18976
11130,0,25,93.6,543.16626
11140,0,26,100.8,543.14184
11150,0,27,108,543.1165
11160,0,28,115.2,543.09024
11170,0,29,122.4,543.06306
11180,0,30,129.6,543.03496
11190,0,31,136.8,543.00594
11200,0,32,144,542.976
11210,0,33,151.2,542.94514
11220,0,34,158.4,542.91336
11230,0,35,165.6,542.88066
11240,0,36,172.8,542.84704
11250,0,37,180,542.8125
11260,0,38,187.2,542.77704
11270,0,39,194.4,542.74066
11280,0,40,201.6,542.70336
11290,0,41,208.8,542.66514
11300,0,42,216,542.626
11310,0,43,223.2,542.58594
11320,0,44,230.4,542.54496
11330,0,45,237.6,542.50306
11340,0,46,244.8,542.46024
11350,0,47,252,542.4165
11360,0,48,259.2,542.37184
11370,0,49,266.4,542.32626
11380,0,50,273.6,542.27976
11390,0,51,280.8,542.23234
11400,0,52,288,542.184
11410,0,53,295.2,542.13474
11420,0,54,302.4,542.08456
11430,0,55,309.6,542.03346
11440,0,56,316.8,541.98144
11450,0,57,324,541.9285
11460,0,58,331.2,541.87464
11470,0,59,338.4,541.81986
11480,0,60,345.6,541.76416
11490,0,61,352.8,541.70754
11500,0,62,0,541.65
11510,0,63,7.2,541.59154
11520,0,64,14.4,541.53216
11530,0,65,21.6,541.47186
11540,0,66,28.8,541.41064
11550,0,67,36,541.3485
11560,0,68,43.2,541.28544
11570,0,69,50.4,541.22146
11580,0,70,57.6,541.15656
11590,0,71,64.8,541.09074
11600,0,72,72,541.024
11610,0,73,79.2,540.95634
11620,0,74,86.4,540.88776
11630,0,75,93.6,540.81826
11640,0,76,100.8,540.74784
11650,0,77,108,540.6765
11660,0,78,115.2,540.60424
11670,0,79,122.4,540.53106
11680,0,80,129.6,540.45696
11690,0,81,136.8,540.38194
11700,0,82,144,540.306
11710,0,83,151.2,540.22914
11720,0,84,158.4,540.15136
11730,0,85,165.6,540.07266
11740,0,86,172.8,539.99304
11750,0,87,180,539.9125
11760,0,88,187.2,539.83104
11770,0,89,194.4,539.74866
11780,0,90,201.6,539.66536
11790,0,90,208.8,539.58114
11800,0,90,216,539.496
11810,0,90,223.2,539.40994
11820,0,90,230.4,539.32296
11830,0,90,237.6,539.23506
11840,0,90,244.8,539.14624
11850,0,90,252,539.0565
11860,0,90,259.2,538.96584
11870,0,90,266.4,538.87426
11880,0,90,273.6,538.78176
11890,0,90,280.8,538.68834
11900,0,90,288,538.594
11910,0,90,295.2,538.49874
11920,0,90,302.4,538.40256
11930,0,90,309.6,538.30546
11940,0,90,316.8,538.20744
11950,0,90,324,538.1085
11960,0,90,331.2,538.00864
11970,0,90,338.4,537.90786
11980,0,90,345.6,537.80616
11990,0,90,352.8,537.70354
12000,0,90,0,537.6
12010,0,90,7.2,537.49554
12020,0,90,14.4,537.39016
12030,0,90,21.6,537.28386
12040,0,90,28.8,537.17664
12050,0,90,36,537.0685
12060,0,90,43.2,536.95944
12070,0,90,50.4,536.84946
12080,0,90,57.6,536.73856
12090,0,90,64.8,536.62674
12100,0,90,72,536.514
12110,0,90,79.2,536.40034
12120,0,90,86.4,536.28576
12130,0,90,93.6,536.17026
12140,0,90,100.8,536.05384
12150,0,90,108,535.9365
12160,0,90,115.2,535.81824
12170,0,90,122.4,535.69906
12180,0,90,129.6,535.57896
12190,0,90,136.8,535.45794
12200,0,90,144,535.336
12210,0,90,151.2,535.21314
12220,0,90,158.4,535.08936
12230,0,90,165.6,534.96466
12240,0,90,172.8,534.83904
12250,0,90,180,534.7125
12260,0,90,187.2,534.58504
12270,0,90,194.4,534.45666
12280,0,90,201.6,534.32736
12290,0,90,208.8,534.19714
12300,0,90,216,534.066
12310,0,90,223.2,533.93394
12320,0,90,230.4,533.80096
12330,0,90,237.6,533.66706
12340,0,90,244.8,533.53224
12350,0,90,252,533.3965
12360,0,90,259.2,533.25984
12370,0,90,266.4,533.12226
12380,0,90,273.6,532.98376
12390,0,90,280.8,532.84434
12400,0,90,288,532.704
12410,0,90,295.2,532.56274
12420,0,90,302.4,532.42056
12430,0,90,309.6,532.27746
12440,0,90,316.8,532.13344
12450,0,90,324,531.9885
12460,0,90,331.2,531.84264
12470,0,90,338.4,531.69586
12480,0,90,345.6,531.54816
12490,0,90,352.8,531.39954
12500,0,90,0,531.25
12510,0,90,7.2,531.09954
12520,0,90,14.4,530.94816
12530,0,90,21.6,530.79586
12540,0,90,28.8,530.64264
12550,0,90,36,530.4885
12560,0,90,43.2,530.33344
12570,0,90,50.4,530.17746
12580,0,90,57.6,530.02056
12590,0,90,64.8,529.86274
12600,0,90,72,529.704
12610,0,90,79.2,529.54434
12620,0,90,86.4,529.38376
12630,0,90,93.6,529.22226
12640,0,90,100.8,529.05984
12650,0,90,108,528.8965
12660,0,90,115.2,528.73224
12670,0,90,122.4,528.56706
12680,0,90,129.6,528.40096
12690,0,90,136.8,528.23394
12700,0,90,144,528.066
12710,0,90,151.2,527.89714
12720,0,90,158.4,527.72736
12730,0,90,165.6,527.55666
12740,0,90,172.8,527.38504
12750,0,90,180,527.2125
12760,0,90,187.2,527.03904
12770,0,90,194.4,526.86466
12780,0,90,201.6,526.68936
12790,0,90,208.8,526.51314
12800,0,90,216,526.336
12810,0,90,223.2,526.15794
12820,0,90,230.4,525.97896
12830,0,90,237.6,525.79906
12840,0,90,244.8,525.61824
12850,0,90,252,525.4365
12860,0,90,259.2,525.25384
12870,0,90,266.4,525.07026
12880,0,90,273.6,524.88576
12890,0,90,280.8,524.70034
12900,0,90,288,524.514
12910,0,90,295.2,524.32674
12920,0,90,302.4,524.13856
12930,0,90,309.6,523.94946
12940,0,90,316.8,523.75944
12950,0,90,324,523.5685
12960,0,90,331.2,523.37664
12970,0,90,338.4,523.18386
12980,0,90,345.6,522.99016
12990,0,90,352.8,522.79554
13000,0,90,0,522.6
13010,0,90,7.2,522.40354
13020,0,90,14.4,522.20616
13030,0,90,21.6,522.00786
13040,0,90,28.8,521.80864
13050,0,90,36,521.6085
13060,0,90,43.2,521.40744
13070,0,90,50.4,521.20546
13080,0,90,57.6,521.00256
13090,0,90,64.8,520.79874
13100,0,90,72,520.594
13110,0,90,79.2,520.38834
13120,0,90,86.4,520.18176
13130,0,90,93.6,519.97426
13140,0,90,100.8,519.76584
13150,0,90,108,519.5565
13160,0,90,115.2,519.34624
13170,0,90,122.4,519.13506
13180,0,90,129.6,518.92296
13190,0,90,136.8,518.70994
13200,0,90,144,518.496
13210,0,90,151.2,518.28114
13220,0,90,158.4,518.06536
13230,0,90,165.6,517.84866
13240,0,90,172.8,517.63104
13250,0,90,180,517.4125
13260,0,90,187.2,517.19304
13270,0,90,194.4,516.97266
13280,0,90,201.6,516.75136
13290,0,90,208.8,516.52914
13300,0,90,216,516.306
13310,0,90,223.2,516.08194
13320,0,90,230.4,515.85696
13330,0,90,237.6,515.63106
13340,0,90,244.8,515.40424
13350,0,90,252,515.1765
13360,0,90,259.2,514.94784
13370,0,90,266.4,514.71826
13380,0,90,273.6,514.48776
13390,0,90,280.8,514.25634
13400,0,90,288,514.024
13410,0,90,295.2,513.79074
13420,0,90,302.4,513.55656
13430,0,90,309.6,513.32146
13440,0,90,316.8,513.08544
13450,0,90,324,512.8485
13460,0,90,331.2,512.61064
13470,0,90,338.4,512.37186
13480,0,90,345.6,512.13216
13490,0,90,352.8,511.89154
13500,0,90,0,511.65
13510,0,90,7.2,511.40754
13520,0,90,14.4,511.16416
13530,0,90,21.6,510.91986
13540,0,90,28.8,510.67464
13550,0,90,36,510.4285
13560,0,90,43.2,510.18144
13570,0,90,50.4,509.93346
13580,0,90,57.6,509.68456
13590,0,90,64.8,509.43474
13600,0,90,72,509.184
13610,0,90,79.2,508.93234
13620,0,90,86.4,508.67976
13630,0,90,93.6,508.42626
13640,0,90,100.8,508.17184
13650,0,90,108,507.9165
13660,0,90,115.2,507.66024
13670,0,90,122.4,507.40306
13680,0,90,129.6,507.14496
13690,0,90,136.8,506.88594
13700,0,90,144,506.626
13710,0,90,151.2,506.36514
13720,0,90,158.4,506.10336
13730,0,90,165.6,505.84066
13740,0,90,172.8,505.57704
13750,0,90,180,505.3125
13760,0,90,187.2,505.04704
13770,0,90,194.4,504.78066
13780,0,90,201.6,504.51336
13790,0,90,208.8,504.24514
13800,0,90,216,503.976
13810,0,90,223.2,503.70594
13820,0,90,230.4,503.43496
13830,0,90,237.6,503.16306
13840,0,90,244.8,502.89024
13850,0,90,252,502.6165
13860,0,90,259.2,502.34184
13870,0,90,266.4,502.06626
13880,0,90,273.6,501.78976
13890,0,90,280.8,501.51234
13900,0,90,288,501.234
13910,0,90,295.2,500.95474
13920,0,90,302.4,500.67456
13930,0,90,309.6,500.39346
13940,0,90,316.8,500.11144
13950,0,90,324,499.8285
13960,0,90,331.2,499.54464
13970,0,90,338.4,499.25986
13980,0,90,345.6,498.97416
13990,0,90,352.8,498.68754
14000,0,90,0,498.4
14010,0,90,7.2,498.11154
14020,0,90,14.4,497.82216
14030,0,90,21.6,497.53186
14040,0,90,28.8,497.24064
14050,0,90,36,496.9485
14060,0,90,43.2,496.65544
14070,0,90,50.4,496.36146
14080,0,90,57.6,496.06656
14090,0,90,64.8,495.77074
14100,0,90,72,495.474
14110,0,90,79.2,495.17634
14120,0,90,86.4,494.87776
14130,0,90,93.6,494.57826
14140,0,90,100.8,494.27784
14150,0,90,108,493.9765
14160,0,90,115.2,493.67424
14170,0,90,122.4,493.37106
14180,0,90,129.6,493.06696
14190,0,90,136.8,492.76194
14200,0,90,144,492.456
14210,0,90,151.2,492.14914
14220,0,90,158.4,491.84136
14230,0,90,165.6,491.53266
14240,0,90,172.8,491.22304
14250,0,90,180,490.9125
14260,0,90,187.2,490.60104
14270,0,90,194.4,490.28866
14280,0,90,201.6,489.97536
14290,0,90,208.8,489.66114
14300,0,90,216,489.346
14310,0,90,223.2,489.02994
14320,0,90,230.4,488.71296
14330,0,90,237.6,488.39506
14340,0,90,244.8,488.07624
14350,0,90,252,487.7565
14360,0,90,259.2,487.43584
14370,0,90,266.4,487.11426
14380,0,90,273.6,486.79176
14390,0,90,280.8,486.46834
14400,0,90,288,486.144
14410,0,90,295.2,485.81874
14420,0,90,302.4,485.49256
14430,0,90,309.6,485.16546
14440,0,90,316.8,484.83744
14450,0,90,324,484.5085
14460,0,90,331.2,484.17864
14470,0,90,338.4,483.84786
14480,0,90,345.6,483.51616
14490,0,90,352.8,483.18354
14500,0,90,0,482.85
14510,0,90,7.2,482.51554
14520,0,90,14.4,482.18016
14530,0,90,21.6,481.84386
14540,0,90,28.8,481.50664
14550,0,90,36,481.1685
14560,0,90,43.2,480.82944
14570,0,90,50.4,480.48946
14580,0,90,57.6,480.14856
14590,0,90,64.8,479.80674
14600,0,90,72,479.464
14610,0,90,79.2,479.12034
14620,0,90,86.4,478.77576
14630,0,90,93.6,478.43026
14640,0,90,100.8,478.08384
14650,0,90,108,477.7365
14660,0,90,115.2,477.38824
14670,0,90,122.4,477.03906
14680,0,90,129.6,476.68896
14690,0,90,136.8,476.33794
14700,0,90,144,475.986
14710,0,90,151.2,475.63314
14720,0,90,158.4,475.27936
14730,0,90,165.6,474.92466
14740,0,90,172.8,474.56904
14750,0,90,180,474.2125
14760,0,90,187.2,473.85504
14770,0,90,194.4,473.49666
14780,0,90,201.6,473.13736
14790,0,90,208.8,472.77714
14800,0,90,216,472.416
14810,0,90,223.2,472.05394
14820,0,90,230.4,471.69096
14830,0,90,237.6,471.32706
14840,0,90,244.8,470.96224
14850,0,90,252,470.5965
14860,0,90,259.2,470.22984
14870,0,90,266.4,469.86226
14880,0,90,273.6,469.49376
14890,0,90,280.8,469.12434
14900,0,90,288,468.754
14910,0,90,295.2,468.38274
14920,0,90,302.4,468.01056
14930,0,90,309.6,467.63746
14940,0,90,316.8,467.26344
14950,0,90,324,466.8885
14960,0,90,331.2,466.51264
14970,0,90,338.4,466.13586
14980,0,90,345.6,465.75816
14990,0,90,352.8,465.37954
15000,0,90,0,465
15010,0,90,7.2,464.61954
15020,0,90,14.4,464.23816
15030,0,90,21.6,463.85586
15040,0,90,28.8,463.47264
15050,0,90,36,463.0885
15060,0,90,43.2,462.70344
15070,0,90,50.4,462.31746
15080,0,90,57.6,461.93056
15090,0,90,64.8,461.54274
15100,0,90,72,461.154
15110,0,90,79.2,460.76434
15120,0,90,86.4,460.37376
15130,0,90,93.6,459.98226
15140,0,90,100.8,459.58984
15150,0,90,108,459.1965
15160,0,90,115.2,458.80224
15170,0,90,122.4,458.40706
15180,0,90,129.6,458.01096
15190,0,90,136.8,457.61394
15200,0,90,144,457.216
15210,0,90,151.2,456.81714
15220,0,90,158.4,456.41736
15230,0,90,165.6,456.01666
15240,0,90,172.8,455.61504
15250,0,90,180,455.2125
15260,0,90,187.2,454.80904
15270,0,90,194.4,454.40466
15280,0,90,201.6,453.99936
15290,0,90,208.8,453.59314
15300,0,90,216,453.186
15310,0,90,223.2,452.77794
15320,0,90,230.4,452.36896
15330,0,90,237.6,451.95906
15340,0,90,244.8,451.54824
15350,0,90,252,451.1365
15360,0,90,259.2,450.72384
15370,0,90,266.4,450.31026
15380,0,90,273.6,449.89576
15390,0,90,280.8,449.48034
15400,0,90,288,449.064
15410,0,90,295.2,448.64674
15420,0,90,302.4,448.22856
15430,0,90,309.6,447.80946
15440,0,90,316.8,447.38944
15450,0,90,324,446.9685
15460,0,90,331.2,446.54664
15470,0,90,338.4,446.12386
15480,0,90,345.6,445.70016
15490,0,90,352.8,445.27554
15500,0,90,0,444.85
15510,0,90,7.2,444.42354
15520,0,90,14.4,443.99616
15530,0,90,21.6,443.56786
15540,0,90,28.8,443.13864
15550,0,90,36,442.7085
15560,0,90,43.2,442.27744
15570,0,90,50.4,441.84546
15580,0,90,57.6,441.41256
15590,0,90,64.8,440.97874
15600,0,90,72,440.544
15610,0,90,79.2,440.10834
15620,0,90,86.4,439.67176
15630,0,90,93.6,439.23426
15640,0,90,100.8,438.79584
15650,0,90,108,438.3565
15660,0,90,115.2,437.91624
15670,0,90,122.4,437.47506
15680,0,90,129.6,437.03296
15690,0,90,136.8,436.58994
15700,0,90,144,436.146
15710,0,90,151.2,435.70114
15720,0,90,158.4,435.25536
15730,0,90,165.6,434.80866
15740,0,90,172.8,434.36104
15750,0,90,180,433.9125
15760,0,90,187.2,433.46304
15770,0,90,194.4,433.01266
15780,0,90,201.6,432.56136
15790,0,90,208.8,432.10914
15800,0,90,216,431.656
15810,0,90,223.2,431.20194
15820,0,90,230.4,430.74696
15830,0,90,237.6,430.29106
15840,0,90,244.8,429.83424
15850,0,90,252,429.3765
15860,0,90,259.2,428.91784
15870,0,90,266.4,428.45826
15880,0,90,273.6,427.99776
15890,0,90,280.8,427.53634
15900,0,90,288,427.074
15910,0,90,295.2,426.61074
15920,0,90,302.4,426.14656
15930,0,90,309.6,425.68146
15940,0,90,316.8,425.21544
15950,0,90,324,424.7485
15960,0,90,331.2,424.28064
15970,0,90,338.4,423.81186
15980,0,90,345.6,423.34216
15990,0,90,352.8,422.87154
16000,0,90,0,422.4
16010,0,90,7.2,421.92754
16020,0,90,14.4,421.45416
16030,0,90,21.6,420.97986
16040,0,90,28.8,420.50464
16050,0,90,36,420.0285
16060,0,90,43.2,419.55144
16070,0,90,50.4,419.07346
16080,0,90,57.6,418.59456
16090,0,90,64.8,418.11474
16100,0,90,72,417.634
16110,0,90,79.2,417.15234
16120,0,90,86.4,416.66976
16130,0,90,93.6,416.18626
16140,0,90,100.8,415.70184
16150,0,90,108,415.2165
16160,0,90,115.2,414.73024
16170,0,90,122.4,414.24306
16180,0,90,129.6,413.75496
16190,0,90,136.8,413.26594
16200,0,90,144,412.776
16210,0,90,151.2,412.28514
16220,0,90,158.4,411.79336
16230,0,90,165.6,411.30066
16240,0,90,172.8,410.80704
16250,0,90,180,410.3125
16260,0,90,187.2,409.81704
16270,0,90,194.4,409.32066
16280,0,90,201.6,408.82336
16290,0,90,208.8,408.32514
16300,0,90,216,407.826
16310,0,90,223.2,407.32594
16320,0,90,230.4,406.82496
16330,0,90,237.6,406.32306
16340,0,90,244.8,405.82024
16350,0,90,252,405.3165
16360,0,90,259.2,404.81184
16370,0,90,266.4,404.30626
16380,0,90,273.6,403.79976
16390,0,90,280.8,403.29234
16400,0,90,288,402.784
16410,0,90,295.2,402.27474
16420,0,90,302.4,401.76456
16430,0,90,309.6,401.25346
16440,0,90,316.8,400.74144
16450,0,90,324,400.2285
16460,0,90,331.2,399.71464
16470,0,90,338.4,399.19986
16480,0,90,345.6,398.68416
16490,0,90,352.8,398.16754
16500,0,90,0,397.65
16510,0,90,7.2,397.13154
16520,0,90,14.4,396.61216
16530,0,90,21.6,396.09186
16540,0,90,28.8,395.57064
16550,0,90,36,395.0485
16560,0,90,43.2,394.52544
16570,0,90,50.4,394.00146
16580,0,90,57.6,393.47656
16590,0,90,64.8,392.95074
16600,0,90,72,392.424
16610,0,90,79.2,391.89634
16620,0,90,86.4,391.36776
16630,0,90,93.6,390.83826
16640,0,90,100.8,390.30784
16650,0,90,108,389.7765
16660,0,90,115.2,389.24424
16670,0,90,122.4,388.71106
16680,0,90,129.6,388.17696
16690,0,90,136.8,387.64194
16700,0,90,144,387.106
16710,0,90,151.2,386.56914
16720,0,90,158.4,386.03136
16730,0,90,165.6,385.49266
16740,0,90,172.8,384.95304
16750,0,90,180,384.4125
16760,0,90,187.2,383.87104
16770,0,90,194.4,383.32866
16780,0,90,201.6,382.78536
16790,0,90,208.8,382.24114
16800,0,90,216,381.696
16810,0,90,223.2,381.14994
16820,0,90,230.4,380.60296
16830,0,90,237.6,380.05506
16840,0,90,244.8,379.50624
16850,0,90,252,378.9565
16860,0,90,259.2,378.40584
16870,0,90,266.4,377.85426
16880,0,90,273.6,377.30176
16890,0,90,280.8,376.74834
16900,0,90,288,376.194
16910,0,90,295.2,375.63874
16920,0,90,302.4,375.08256
16930,0,90,309.6,374.52546
16940,0,90,316.8,373.96744
16950,0,90,324,373.4085
16960,0,90,331.2,372.84864
16970,0,90,338.4,372.28786
16980,0,90,345.6,371.72616
16990,0,90,352.8,371.16354
17000,0,90,0,370.6
17010,0,90,7.2,370.03554
17020,0,90,14.4,369.47016
17030,0,90,21.6,368.90386
17040,0,90,28.8,368.33664
17050,0,90,36,367.7685
17060,0,90,43.2,367.19944
17070,0,90,50.4,366.62946
17080,0,90,57.6,366.05856
17090,0,90,64.8,365.48674
17100,0,90,72,364.914
17110,0,90,79.2,364.34034
17120,0,90,86.4,363.76576
17130,0,90,93.6,363.19026
17140,0,90,100.8,362.61384
17150,0,90,108,362.0365
17160,0,90,115.2,361.45824
17170,0,90,122.4,360.87906
17180,0,90,129.6,360.29896
17190,0,90,136.8,359.71794
17200,0,90,144,359.136
17210,0,90,151.2,358.55314
17220,0,90,158.4,357.96936
17230,0,90,165.6,357.38466
17240,0,90,172.8,356.79904
17250,0,90,180,356.2125
17260,0,90,187.2,355.62504
17270,0,90,194.4,355.03666
17280,0,90,201.6,354.44736
17290,0,90,208.8,353.85714
17300,0,90,216,353.266
17310,0,90,223.2,352.67394
17320,0,90,230.4,352.08096
17330,0,90,237.6,351.48706
17340,0,90,244.8,350.89224
17350,0,90,252,350.2965
17360,0,90,259.2,349.69984
17370,0,90,266.4,349.10226
17380,0,90,273.6,348.50376
17390,0,90,280.8,347.90434
17400,0,90,288,347.304
17410,0,90,295.2,346.70274
17420,0,90,302.4,346.10056
17430,0,90,309.6,345.49746
17440,0,90,316.8,344.89344
17450,0,90,324,344.2885
17460,0,90,331.2,343.68264
17470,0,90,338.4,343.07586
17480,0,90,345.6,342.46816
17490,0,90,352.8,341.85954
17500,0,90,0,341.25
17510,0,90,7.2,340.63954
17520,0,90,14.4,340.02816
17530,0,90,21.6,339.41586
17540,0,90,28.8,338.80264
17550,0,90,36,338.1885
17560,0,90,43.2,337.57344
17570,0,90,50.4,336.95746
17580,0,90,57.6,336.34056
17590,0,90,64.8,335.72274
17600,0,90,72,335.104
17610,0,90,79.2,334.48434
17620,0,90,86.4,333.86376
17630,0,90,93.6,333.24226
17640,0,90,100.8,332.61984
17650,0,90,108,331.9965
17660,0,90,115.2,331.37224
17670,0,90,122.4,330.74706
17680,0,90,129.6,330.12096
17690,0,90,136.8,329.49394
17700,0,90,144,328.866
17710,0,90,151.2,328.23714
17720,0,90,158.4,327.60736
17730,0,90,165.6,326.97666
17740,0,90,172.8,326.34504
17750,0,90,180,325.7125
17760,0,90,187.2,325.07904
17770,0,90,194.4,324.44466
17780,0,90,201.6,323.80936
17790,0,90,208.8,323.17314
17800,0,90,216,322.536
17810,0,90,223.2,321.89794
17820,0,90,230.4,321.25896
17830,0,90,237.6,320.61906
17840,0,90,244.8,319.97824
17850,0,90,252,319.3365
17860,0,90,259.2,318.69384
17870,0,90,266.4,318.05026
17880,0,90,273.6,317.40576
17890,0,90,280.8,316.76034
17900,0,90,288,316.114
17910,0,90,295.2,315.46674
17920,0,90,302.4,314.81856
17930,0,90,309.6,314.16946
17940,0,90,316.8,313.51944
17950,0,90,324,312.8685
17960,0,90,331.2,312.21664
17970,0,90,338.4,311.56386
17980,0,90,345.6,310.91016
17990,0,90,352.8,310.25554
18000,0,90,0,309.6
18010,0,90,7.2,308.94354
18020,0,90,14.4,308.28616
18030,0,90,21.6,307.62786
18040,0,90,28.8,306.96864
18050,0,90,36,306.3085
18060,0,90,43.2,305.64744
18070,0,90,50.4,304.98546
18080,0,90,57.6,304.32256
18090,0,90,64.8,303.65874
18100,0,90,72,302.994
18110,0,90,79.2,302.32834
18120,0,90,86.4,301.66176
18130,0,90,93.6,300.99426
18140,0,90,100.8,300.32584
18150,0,90,108,299.6565
18160,0,90,115.2,298.98624
18170,0,90,122.4,298.31506
18180,0,90,129.6,297.64296
18190,0,90,136.8,296.96994
18200,0,90,144,296.296
18210,0,90,151.2,295.62114
18220,0,90,158.4,294.94536
18230,0,90,165.6,294.26866
18240,0,90,172.8,293.59104
18250,0,90,180,292.9125
18260,0,90,187.2,292.23304
18270,0,90,194.4,291.55266
18280,0,90,201.6,290.87136
18290,0,90,208.8,290.18914
18300,0,90,216,289.506
18310,0,90,223.2,288.82194
18320,0,90,230.4,288.13696
18330,0,90,237.6,287.45106
18340,0,90,244.8,286.76424
18350,0,90,252,286.0765
18360,0,90,259.2,285.38784
18370,0,90,266.4,284.69826
18380,0,90,273.6,284.00776
18390,0,90,280.8,283.31634
18400,0,90,288,282.624
18410,0,90,295.2,281.93074
18420,0,90,302.4,281.23656
18430,0,90,309.6,280.54146
18440,0,90,316.8,279.84544
18450,0,90,324,279.1485
18460,0,90,331.2,278.45064
18470,0,90,338.4,277.75186
18480,0,90,345.6,277.05216
18490,0,90,352.8,276.35154
18500,0,90,0,275.65
18510,0,90,7.2,274.94754
18520,0,90,14.4,274.24416
18530,0,90,21.6,273.53986
18540,0,90,28.8,272.83464
18550,0,90,36,272.1285
18560,0,90,43.2,271.42144
18570,0,90,50.4,270.71346
18580,0,90,57.6,270.00456
18590,0,90,64.8,269.29474
18600,0,90,72,268.584
18610,0,90,79.2,267.87234
18620,0,90,86.4,267.15976
18630,0,90,93.6,266.44626
18640,0,90,100.8,265.73184
18650,0,90,108,265.0165
18660,0,90,115.2,264.30024
18670,0,90,122.4,263.58306
18680,0,90,129.6,262.86496
18690,0,90,136.8,262.14594
18700,0,90,144,261.426
18710,0,90,151.2,260.70514
18720,0,90,158.4,259.98336
18730,0,90,165.6,259.26066
18740,0,90,172.8,258.53704
18750,0,90,180,257.8125
18760,0,90,187.2,257.08704
18770,0,90,194.4,256.36066
18780,0,90,201.6,255.63336
18790,0,90,208.8,254.90514
18800,0,90,216,254.176
18810,0,90,223.2,253.44594
18820,0,90,230.4,252.71496
18830,0,90,237.6,251.98306
18840,0,90,244.8,251.25024
18850,0,90,252,250.5165
18860,0,90,259.2,249.78184
18870,0,90,266.4,249.04626
18880,0,90,273.6,248.30976
18890,0,90,280.8,247.57234
18900,0,90,288,246.834
18910,0,90,295.2,246.09474
18920,0,90,302.4,245.35456
18930,0,90,309.6,244.61346
18940,0,90,316.8,243.87144
18950,0,90,324,243.1285
18960,0,90,331.2,242.38464
18970,0,90,338.4,241.63986
18980,0,90,345.6,240.89416
18990,0,90,352.8,240.14754
19000,0,90,0,239.4
19010,0,90,7.2,238.65154
19020,0,90,14.4,237.90216
19030,0,90,21.6,237.15186
19040,0,90,28.8,236.40064
19050,0,90,36,235.6485
19060,0,90,43.2,234.89544
19070,0,90,50.4,234.14146
19080,0,90,57.6,233.38656
19090,0,90,64.8,232.63074
19100,0,90,72,231.874
19110,0,90,79.2,231.11634
19120,0,90,86.4,230.35776
19130,0,90,93.6,229.59826
19140,0,90,100.8,228.83784
19150,0,90,108,228.0765
19160,0,90,115.2,227.31424
19170,0,90,122.4,226.55106
19180,0,90,129.6,225.78696
19190,0,90,136.8,225.02194
19200,0,90,144,224.256
19210,0,90,151.2,223.48914
19220,0,90,158.4,222.72136
19230,0,90,165.6,221.95266
19240,0,90,172.8,221.18304
19250,0,90,180,220.4125
19260,0,90,187.2,219.64104
19270,0,90,194.4,218.86866
19280,0,90,201.6,218.09536
19290,0,90,208.8,217.32114
19300,0,90,216,216.546
19310,0,90,223.2,215.76994
19320,0,90,230.4,214.99296
19330,0,90,237.6,214.21506
19340,0,90,244.8,213.43624
19350,0,90,252,212.6565
19360,0,90,259.2,211.87584
19370,0,90,266.4,211.09426
19380,0,90,273.6,210.31176
19390,0,90,280.8,209.52834
19400,0,90,288,208.744
19410,0,90,295.2,207.95874
19420,0,90,302.4,207.17256
19430,0,90,309.6,206.38546
19440,0,90,316.8,205.59744
19450,0,90,324,204.8085
19460,0,90,331.2,204.01864
19470,0,90,338.4,203.22786
19480,0,90,345.6,202.43616
19490,0,90,352.8,201.64354
19500,0,90,0,200.85
19510,0,90,7.2,200.05554
19520,0,90,14.4,199.26016
19530,0,90,21.6,198.46386
19540,0,90,28.8,197.66664
19550,0,90,36,196.8685
19560,0,90,43.2,196.06944
19570,0,90,50.4,195.26946
19580,0,90,57.6,194.46856
19590,0,90,64.8,193.66674
19600,0,90,72,192.864
19610,0,90,79.2,192.06034
19620,0,90,86.4,191.25576
19630,0,90,93.6,190.45026
19640,0,90,100.8,189.64384
19650,0,90,108,188.8365
19660,0,90,115.2,188.02824
19670,0,90,122.4,187.21906
19680,0,90,129.6,186.40896
19690,0,90,136.8,185.59794
19700,0,90,144,184.786
19710,0,90,151.2,183.97314
19720,0,90,158.4,183.15936
19730,0,90,165.6,182.34466
19740,0,90,172.8,181.52904
19750,0,90,180,180.7125
19760,0,90,187.2,179.89504
19770,0,90,194.4,179.07666
19780,0,90,201.6,178.25736
19790,0,90,208.8,177.43714
19800,0,90,216,176.616
19810,0,90,223.2,175.79394
19820,0,90,230.4,174.97096
19830,0,90,237.6,174.14706
19840,0,90,244.8,173.32224
19850,0,90,252,172.4965
19860,0,90,259.2,171.66984
19870,0,90,266.4,170.84226
19880,0,90,273.6,170.01376
19890,0,90,280.8,169.18434
19900,0,90,288,168.354
19910,0,90,295.2,167.52274
19920,0,90,302.4,166.69056
19930,0,90,309.6,165.85746
19940,0,90,316.8,165.02344
19950,0,90,324,164.1885
19960,0,90,331.2,163.35264
19970,0,90,338.4,162.51586
19980,0,90,345.6,161.67816
19990,0,90,352.8,160.83954
20000,0,90,0,160
20010,0,90,7.2,159.15954
20020,0,90,14.4,158.31816
20030,0,90,21.6,157.47586
20040,0,90,28.8,156.63264
20050,0,90,36,155.7885
20060,0,90,43.2,154.94344
20070,0,90,50.4,154.09746
20080,0,90,57.6,153.25056
20090,0,90,64.8,152.40274
20100,0,90,72,151.554
20110,0,90,79.2,150.70434
20120,0,90,86.4,149.85376
20130,0,90,93.6,149.00226
20140,0,90,100.8,148.14984
20150,0,90,108,147.2965
20160,0,90,115.2,146.44224
20170,0,90,122.4,145.58706
20180,0,90,129.6,144.73096
20190,0,90,136.8,143.87394
20200,0,90,144,143.016
20210,0,90,151.2,142.15714
20220,0,90,158.4,141.29736
20230,0,90,165.6,140.43666
20240,0,90,172.8,139.57504
20250,0,90,180,138.7125
20260,0,90,187.2,137.84904
20270,0,90,194.4,136.98466
20280,0,90,201.6,136.11936
20290,0,90,208.8,135.25314
20300,0,90,216,134.386
20310,0,90,223.2,133.51794
20320,0,90,230.4,132.64896
20330,0,90,237.6,131.77906
20340,0,90,244.8,130.90824
20350,0,90,252,130.0365
20360,0,90,259.2,129.16384
20370,0,90,266.4,128.29026
20380,0,90,273.6,127.41576
20390,0,90,280.8,126.54034
20400,0,90,288,125.664
20410,0,90,295.2,124.78674
20420,0,90,302.4,123.90856
20430,0,90,309.6,123.02946
20440,0,90,316.8,122.14944
20450,0,90,324,121.2685
20460,0,90,331.2,120.38664
20470,0,90,338.4,119.50386
20480,0,90,345.6,118.62016
20490,0,90,352.8,117.73554
20500,0,90,0,116.85
20510,0,90,7.2,115.96354
20520,0,90,14.4,115.07616
20530,0,90,21.6,114.18786
20540,0,90,28.8,113.29864
20550,0,90,36,112.4085
20560,0,90,43.2,111.51744
20570,0,90,50.4,110.62546
20580,0,90,57.6,109.73256
20590,0,90,64.8,108.83874
20600,0,90,72,107.944
20610,0,90,79.2,107.04834
20620,0,90,86.4,106.15176
20630,0,90,93.6,105.25426
20640,0,90,100.8,104.35584
20650,0,90,108,103.4565
20660,0,90,115.2,102.55624
20670,0,90,122.4,101.65506
20680,0,90,129.6,100.75296
20690,0,90,136.8,99.84994
20700,0,90,144,98.946
20710,0,90,151.2,98.04114
20720,0,90,158.4,97.13536
20730,0,90,165.6,96.22866
20740,0,90,172.8,95.32104
20750,0,90,180,94.4125
20760,0,90,187.2,93.50304
20770,0,90,194.4,92.59266
20780,0,90,201.6,91.68136
20790,0,90,208.8,90.76914
20800,0,90,216,89.856
20810,0,90,223.2,88.94194
20820,0,90,230.4,88.02696
20830,0,90,237.6,87.11106
20840,0,90,244.8,86.19424
20850,0,90,252,85.2765
20860,0,90,259.2,84.35784
20870,0,90,266.4,83.43826
20880,0,90,273.6,82.51776
20890,0,90,280.8,81.59634
20900,0,90,288,80.674
20910,0,90,295.2,79.75074
20920,0,90,302.4,78.82656
20930,0,90,309.6,77.90146
20940,0,90,316.8,76.97544
20950,0,90,324,76.0485
20960,0,90,331.2,75.12064
20970,0,90,338.4,74.19186
20980,0,90,345.6,73.26216
20990,0,90,352.8,72.33154
21000,0,90,0,71.4
21010,0,90,7.2,70.46754
21020,0,90,14.4,69.53416
21030,0,90,21.6,68.59986
21040,0,90,28.8,67.66464
21050,0,90,36,66.7285
21060,0,90,43.2,65.79144
21070,0,90,50.4,64.85346
21080,0,90,57.6,63.91456
21090,0,90,64.8,62.97474
21100,0,90,72,62.034
21110,0,90,79.2,61.09234
21120,0,90,86.4,60.14976
21130,0,90,93.6,59.20626
21140,0,90,100.8,58.26184
21150,0,90,108,57.3165
21160,0,90,115.2,56.37024
21170,0,90,122.4,55.42306
21180,0,90,129.6,54.47496
21190,0,90,136.8,53.52594
21200,0,90,144,52.576
21210,0,90,151.2,51.62514
21220,0,90,158.4,50.67336
21230,0,90,165.6,49.72066
21240,0,90,172.8,48.76704
21250,0,90,180,47.8125
21260,0,90,187.2,46.85704
21270,0,90,194.4,45.90066
21280,0,90,201.6,44.94336
21290,0,90,208.8,43.98514
21300,0,90,216,43.026
21310,0,90,223.2,42.06594
21320,0,90,230.4,41.10496
21330,0,90,237.6,40.14306
21340,0,90,244.8,39.18024
21350,0,90,252,38.2165
21360,0,90,259.2,37.25184
21370,0,90,266.4,36.28626
21380,0,90,273.6,35.31976
21390,0,90,280.8,34.35234
21400,0,90,288,33.384
21410,0,90,295.2,32.41474
21420,0,90,302.4,31.44456
21430,0,90,309.6,30.47346
21440,0,90,316.8,29.50144
21450,0,90,324,28.5285
21460,0,90,331.2,27.55464
21470,0,90,338.4,26.57986
21480,0,90,345.6,25.60416
21490,0,90,352.8,24.62754
21500,0,90,0,23.65
21510,0,90,7.2,22.67154
21520,0,90,14.4,21.69216
21530,0,90,21.6,20.71186
21540,0,90,28.8,19.73064
21550,0,90,36,18.7485
21560,0,90,43.2,17.76544
21570,0,90,50.4,16.78146
21580,0,90,57.6,15.79656
21590,0,90,64.8,14.81074
21600,0,90,72,13.824
21610,0,90,79.2,12.83634
21620,0,90,86.4,11.84776
21630,0,90,93.6,10.85826
21640,0,90,100.8,9.86784
21650,0,90,108,8.8765
21660,0,90,115.2,7.88424
21670,0,90,122.4,6.89106
21680,0,90,129.6,5.89696
21690,0,90,136.8,4.90194
21700,0,90,144,3.906
21710,0,90,151.2,2.90914
21720,0,90,158.4,1.91136
21730,0,90,165.6,0.91266
