Time, Roll, Pitch, Yaw, Altitude
0,0,-90,0,0
10,0,-90,10,0.99954
20,0,-90,20,1.99816
30,0,-90,30,2.99586
40,0,-90,40,3.99264
50,0,-90,50,4.9885
60,0,-90,60,5.98344
70,0,-90,70,6.97746
80,0,-90,80,7.97056
90,0,-90,90,8.96274
100,0,-90,100,9.954
110,0,-90,110,10.94434
120,0,-90,120,11.93376
130,0,-90,130,12.92226
140,0,-90,140,13.90984
150,0,-90,150,14.8965
160,0,-90,160,15.88224
170,0,-90,170,16.86706
180,0,-90,180,17.85096
190,0,-90,190,18.83394
200,0,-90,200,19.816
210,0,-90,210,20.79714
220,0,-90,220,21.77736
230,0,-90,230,22.75666
240,0,-90,240,23.73504
250,0,-90,250,24.7125
260,0,-90,260,25.68904
270,0,-90,270,26.66466
280,0,-90,280,27.63936
290,0,-90,290,28.61314
300,0,-90,300,29.586
310,0,-90,310,30.55794
320,0,-90,320,31.52896
330,0,-90,330,32.49906
340,0,-90,340,33.46824
350,0,-90,350,34.4365
360,0,-90,0,35.40384
370,0,-90,10,36.37026
380,0,-90,20,37.33576
390,0,-90,30,38.30034
400,0,-90,40,39.264
410,0,-90,50,40.22674
420,0,-90,60,41.18856
430,0,-90,70,42.14946
440,0,-90,80,43.10944
450,0,-90,90,44.0685
460,0,-90,100,45.02664
470,0,-90,110,45.98386
480,0,-90,120,46.94016
490,0,-90,130,47.89554
500,0,-90,140,48.85
510,0,-90,150,49.80354
520,0,-90,160,50.75616
530,0,-90,170,51.70786
540,0,-90,180,52.65864
550,0,-90,190,53.6085
560,0,-90,200,54.55744
570,0,-90,210,55.50546
580,0,-90,220,56.45256
590,0,-90,230,57.39874
600,0,-90,240,58.344
610,0,-90,250,59.28834
620,0,-90,260,60.23176
630,0,-90,270,61.17426
640,0,-90,280,62.11584
650,0,-90,290,63.0565
660,0,-90,300,63.99624
670,0,-90,310,64.93506
680,0,-90,320,65.87296
690,0,-90,330,66.80994
700,0,-90,340,67.746
710,0,-90,350,68.68114
720,0,-90,0,69.61536
730,0,-90,10,70.54866
740,0,-90,20,71.48104
750,0,-90,30,72.4125
760,0,-90,40,73.34304
770,0,-90,50,74.27266
780,0,-90,60,75.20136
790,0,-90,70,76.12914
800,0,-90,80,77.056
810,0,-90,90,77.98194
820,0,-90,100,78.90696
830,0,-90,110,79.83106
840,0,-90,120,80.75424
850,0,-90,130,81.6765
860,0,-90,140,82.59784
870,0,-90,150,83.51826
880,0,-90,160,84.43776
890,0,-90,170,85.35634
900,0,-90,180,86.274
910,0,-90,190,87.19074
920,0,-90,200,88.10656
930,0,-90,210,89.02146
940,0,-90,220,89.93544
950,0,-90,230,90.8485
960,0,-90,240,91.76064
970,0,-90,250,92.67186
980,0,-90,260,93.58216
990,0,-90,270,94.49154
1000,0,-90,280,95.4
1010,0,-90,290,96.30754
1020,0,-90,300,97.21416
1030,0,-90,310,98.11986
1040,0,-90,320,99.02464
1050,0,-90,330,99.9285
1060,0,-90,340,100.83144
1070,0,-90,350,101.73346
1080,0,-90,0,102.63456
1090,0,-90,10,103.53474
1100,0,-90,20,104.434
1110,0,-90,30,105.33234
1120,0,-90,40,106.22976
1130,0,-90,50,107.12626
1140,0,-90,60,108.02184
1150,0,-90,70,108.9165
1160,0,-90,80,109.81024
1170,0,-90,90,110.70306
1180,0,-90,100,111.59496
1190,0,-90,110,112.48594
1200,0,-90,120,113.376
1210,0,-90,130,114.26514
1220,0,-90,140,115.15336
1230,0,-90,150,116.04066
1240,0,-90,160,116.92704
1250,0,-90,170,117.8125
1260,0,-90,180,118.69704
1270,0,-90,190,119.58066
1280,0,-90,200,120.46336
1290,0,-90,210,121.34514
1300,0,-90,220,122.226
1310,0,-90,230,123.10594
1320,0,-90,240,123.98496
1330,0,-90,250,124.86306
1340,0,-90,260,125.74024
1350,0,-90,270,126.6165
1360,0,-90,280,127.49184
1370,0,-90,290,128.36626
1380,0,-90,300,129.23976
1390,0,-90,310,130.11234
1400,0,-90,320,130.984
1410,0,-90,330,131.85474
1420,0,-90,340,132.72456
1430,0,-90,350,133.59346
1440,0,-90,0,134.46144
1450,0,-90,10,135.3285
1460,0,-90,20,136.19464
1470,0,-90,30,137.05986
1480,0,-90,40,137.92416
1490,0,-90,50,138.78754
1500,0,-90,60,139.65
1510,0,-90,70,140.51154
1520,0,-90,80,141.37216
1530,0,-90,90,142.23186
1540,0,-90,100,143.09064
1550,0,-90,110,143.9485
1560,0,-90,120,144.80544
1570,0,-90,130,145.66146
1580,0,-90,140,146.51656
1590,0,-90,150,147.37074
1600,0,-90,160,148.224
1610,0,-90,170,149.07634
1620,0,-90,180,149.92776
1630,0,-90,190,150.77826
1640,0,-90,200,151.62784
1650,0,-90,210,152.4765
1660,0,-90,220,153.32424
1670,0,-90,230,154.17106
1680,0,-90,240,155.01696
1690,0,-90,250,155.86194
1700,0,-90,260,156.706
1710,0,-90,270,157.54914
1720,0,-90,280,158.39136
1730,0,-90,290,159.23266
1740,0,-90,300,160.07304
1750,0,-90,310,160.9125
1760,0,-90,320,161.75104
1770,0,-90,330,162.58866
1780,0,-90,340,163.42536
1790,0,-90,350,164.26114
1800,0,-90,0,165.096
1810,0,-90,10,165.92994
1820,0,-90,20,166.76296
1830,0,-90,30,167.59506
1840,0,-90,40,168.42624
1850,0,-90,50,169.2565
1860,0,-90,60,170.08584
1870,0,-90,70,170.91426
1880,0,-90,80,171.74176
1890,0,-90,90,172.56834
1900,0,-90,100,173.394
1910,0,-90,110,174.21874
1920,0,-90,120,175.04256
1930,0,-90,130,175.86546
1940,0,-90,140,176.68744
1950,0,-90,150,177.5085
1960,0,-90,160,178.32864
1970,0,-90,170,179.14786
1980,0,-90,180,179.96616
1990,0,-90,190,180.78354
2000,0,-90,200,181.6
2010,0,-90,210,182.41554
2020,0,-90,220,183.23016
2030,0,-90,230,184.04386
2040,0,-90,240,184.85664
2050,0,-90,250,185.6685
2060,0,-90,260,186.47944
2070,0,-90,270,187.28946
2080,0,-90,280,188.09856
2090,0,-90,290,188.90674
2100,0,-90,300,189.714
2110,0,-90,310,190.52034
2120,0,-90,320,191.32576
2130,0,-90,330,192.13026
2140,0,-90,340,192.93384
2150,0,-90,350,193.7365
2160,0,-90,0,194.53824
2170,0,-90,10,195.33906
2180,0,-90,20,196.13896
2190,0,-90,30,196.93794
2200,0,-90,40,197.736
2210,0,-90,50,198.53314
2220,0,-90,60,199.32936
2230,0,-90,70,200.12466
2240,0,-90,80,200.91904
2250,0,-90,90,201.7125
2260,0,-90,100,202.50504
2270,0,-90,110,203.29666
2280,0,-90,120,204.08736
2290,0,-90,130,204.87714
2300,0,-90,140,205.666
2310,0,-90,150,206.45394
2320,0,-90,160,207.24096
2330,0,-90,170,208.02706
2340,0,-90,180,208.81224
2350,0,-90,190,209.5965
2360,0,-90,200,210.37984
2370,0,-90,210,211.16226
2380,0,-90,220,211.94376
2390,0,-90,230,212.72434
2400,0,-90,240,213.504
2410,0,-90,250,214.28274
2420,0,-90,260,215.06056
2430,0,-90,270,215.83746
2440,0,-90,280,216.61344
2450,0,-90,290,217.3885
2460,0,-90,300,218.16264
2470,0,-90,310,218.93586
2480,0,-90,320,219.70816
2490,0,-90,330,220.47954
2500,0,-90,340,221.25
2510,0,-90,350,222.01954
2520,0,-90,0,222.78816
2530,0,-90,10,223.55586
2540,0,-90,20,224.32264
2550,0,-90,30,225.0885
2560,0,-90,40,225.85344
2570,0,-90,50,226.61746
2580,0,-90,60,227.38056
2590,0,-90,70,228.14274
2600,0,-90,80,228.904
2610,0,-90,90,229.66434
2620,0,-90,100,230.42376
2630,0,-90,110,231.18226
2640,0,-90,120,231.93984
2650,0,-90,130,232.6965
2660,0,-90,140,233.45224
2670,0,-90,150,234.20706
2680,0,-90,160,234.96096
2690,0,-90,170,235.71394
2700,0,-90,180,236.466
2710,0,-90,190,237.21714
2720,0,-90,200,237.96736
2730,0,-90,210,238.71666
2740,0,-90,220,239.46504
2750,0,-90,230,240.2125
2760,0,-90,240,240.95904
2770,0,-90,250,241.70466
2780,0,-90,260,242.44936
2790,0,-90,270,243.19314
2800,0,-90,280,243.936
2810,0,-90,290,244.67794
2820,0,-90,300,245.41896
2830,0,-90,310,246.15906
2840,0,-90,320,246.89824
2850,0,-90,330,247.6365
2860,0,-90,340,248.37384
2870,0,-90,350,249.11026
2880,0,-90,0,249.84576
2890,0,-90,10,250.58034
2900,0,-90,20,251.314
2910,0,-90,30,252.04674
2920,0,-90,40,252.77856
2930,0,-90,50,253.50946
2940,0,-90,60,254.23944
2950,0,-90,70,254.9685
2960,0,-90,80,255.69664
2970,0,-90,90,256.42386
2980,0,-90,100,257.15016
2990,0,-90,110,257.87554
3000,0,-90,120,258.6
3010,0,-90,130,259.32354
3020,0,-90,140,260.04616
3030,0,-90,150,260.76786
3040,0,-90,160,261.48864
3050,0,-90,170,262.2085
3060,0,-90,180,262.92744
3070,0,-90,190,263.64546
3080,0,-90,200,264.36256
3090,0,-90,210,265.07874
3100,0,-90,220,265.794
3110,0,-90,230,266.50834
3120,0,-90,240,267.22176
3130,0,-90,250,267.93426
3140,0,-90,260,268.64584
3150,0,-90,270,269.3565
3160,0,-90,280,270.06624
3170,0,-90,290,270.77506
3180,0,-90,300,271.48296
3190,0,-90,310,272.18994
3200,0,-90,320,272.896
3210,0,-90,330,273.60114
3220,0,-90,340,274.30536
3230,0,-90,350,275.00866
3240,0,-90,0,275.71104
3250,0,-90,10,276.4125
3260,0,-90,20,277.11304
3270,0,-90,30,277.81266
3280,0,-90,40,278.51136
3290,0,-90,50,279.20914
3300,0,-90,60,279.906
3310,0,-90,70,280.60194
3320,0,-90,80,281.29696
3330,0,-90,90,281.99106
3340,0,-90,100,282.68424
3350,0,-90,110,283.3765
3360,0,-90,120,284.06784
3370,0,-90,130,284.75826
3380,0,-90,140,285.44776
3390,0,-90,150,286.13634
3400,0,-90,160,286.824
3410,0,-90,170,287.51074
3420,0,-90,180,288.19656
3430,0,-90,190,288.88146
3440,0,-90,200,289.56544
3450,0,-90,210,290.2485
3460,0,-90,220,290.93064
3470,0,-90,230,291.61186
3480,0,-90,240,292.29216
3490,0,-90,250,292.97154
3500,0,-90,260,293.65
3510,0,-90,270,294.32754
3520,0,-90,280,295.00416
3530,0,-90,290,295.67986
3540,0,-90,300,296.35464
3550,0,-90,310,297.0285
3560,0,-90,320,297.70144
3570,0,-90,330,298.37346
3580,0,-90,340,299.04456
3590,0,-90,350,299.71474
3600,0,-90,0,300.384
3610,0,-90,10,301.05234
3620,0,-90,20,301.71976
3630,0,-90,30,302.38626
3640,0,-90,40,303.05184
3650,0,-90,50,303.7165
3660,0,-90,60,304.38024
3670,0,-90,70,305.04306
3680,0,-90,80,305.70496
3690,0,-90,90,306.36594
3700,0,-90,100,307.026
3710,0,-90,110,307.68514
3720,0,-90,120,308.34336
3730,0,-90,130,309.00066
3740,0,-90,140,309.65704
3750,0,-90,150,310.3125
3760,0,-90,160,310.96704
3770,0,-90,170,311.62066
3780,0,-90,180,312.27336
3790,0,-90,190,312.92514
3800,0,-90,200,313.576
3810,0,-90,210,314.22594
3820,0,-90,220,314.87496
3830,0,-90,230,315.52306
3840,0,-90,240,316.17024
3850,0,-90,250,316.8165
3860,0,-90,260,317.46184
3870,0,-90,270,318.10626
3880,0,-90,280,318.74976
3890,0,-90,290,319.39234
3900,0,-90,300,320.034
3910,0,-90,310,320.67474
3920,0,-90,320,321.31456
3930,0,-90,330,321.95346
3940,0,-90,340,322.59144
3950,0,-90,350,323.2285
3960,0,-90,0,323.86464
3970,0,-90,10,324.49986
3980,0,-90,20,325.13416
3990,0,-90,30,325.76754
4000,0,-90,40,326.4
4010,0,-90,50,327.03154
4020,0,-90,60,327.66216
4030,0,-90,70,328.29186
4040,0,-90,80,328.92064
4050,0,-90,90,329.5485
4060,0,-90,100,330.17544
4070,0,-90,110,330.80146
4080,0,-90,120,331.42656
4090,0,-90,130,332.05074
4100,0,-90,140,332.674
4110,0,-90,150,333.29634
4120,0,-90,160,333.91776
4130,0,-90,170,334.53826
4140,0,-90,180,335.15784
4150,0,-90,190,335.7765
4160,0,-90,200,336.39424
4170,0,-90,210,337.01106
4180,0,-90,220,337.62696
4190,0,-90,230,338.24194
4200,0,-90,240,338.856
4210,0,-90,250,339.46914
4220,0,-90,260,340.08136
4230,0,-90,270,340.69266
4240,0,-90,280,341.30304
4250,0,-90,290,341.9125
4260,0,-90,300,342.52104
4270,0,-90,310,343.12866
4280,0,-90,320,343.73536
4290,0,-90,330,344.34114
4300,0,-90,340,344.946
4310,0,-90,350,345.54994
4320,0,-90,0,346.15296
4330,0,-90,10,346.75506
4340,0,-90,20,347.35624
4350,0,-90,30,347.9565
4360,0,-90,40,348.55584
4370,0,-90,50,349.15426
4380,0,-90,60,349.75176
4390,0,-90,70,350.34834
4400,0,-90,80,350.944
4410,0,-90,90,351.53874
4420,0,-90,100,352.13256
4430,0,-90,110,352.72546
4440,0,-90,120,353.31744
4450,0,-90,130,353.9085
4460,0,-90,140,354.49864
4470,0,-90,150,355.08786
4480,0,-90,160,355.67616
4490,0,-90,170,356.26354
4500,0,-90,180,356.85
4510,0,-90,190,357.43554
4520,0,-90,200,358.02016
4530,0,-90,210,358.60386
4540,0,-90,220,359.18664
4550,0,-90,230,359.7685
4560,0,-90,240,360.34944
4570,0,-90,250,360.92946
4580,0,-90,260,361.50856
4590,0,-90,270,362.08674
4600,0,-90,280,362.664
4610,0,-90,290,363.24034
4620,0,-90,300,363.81576
4630,0,-90,310,364.39026
4640,0,-90,320,364.96384
4650,0,-90,330,365.5365
4660,0,-90,340,366.10824
4670,0,-90,350,366.67906
4680,0,-90,0,367.24896
4690,0,-90,10,367.81794
4700,0,-90,20,368.386
4710,0,-90,30,368.95314
4720,0,-90,40,369.51936
4730,0,-90,50,370.08466
4740,0,-90,60,370.64904
4750,0,-90,70,371.2125
4760,0,-90,80,371.77504
4770,0,-90,90,372.33666
4780,0,-90,100,372.89736
4790,0,-90,110,373.45714
4800,0,-90,120,374.016
4810,0,-90,130,374.57394
4820,0,-90,140,375.13096
4830,0,-90,150,375.68706
4840,0,-90,160,376.24224
4850,0,-90,170,376.7965
4860,0,-90,180,377.34984
4870,0,-90,190,377.90226
4880,0,-90,200,378.45376
4890,0,-90,210,379.00434
4900,0,-90,220,379.554
4910,0,-90,230,380.10274
4920,0,-90,240,380.65056
4930,0,-90,250,381.19746
4940,0,-90,260,381.74344
4950,0,-90,270,382.2885
4960,0,-90,280,382.83264
4970,0,-90,290,383.37586
4980,0,-90,300,383.91816
4990,0,-90,310,384.45954
5000,0,-90,320,385
5010,0,-90,330,385.53954
5020,0,-90,340,386.07816
5030,0,-90,350,386.61586
5040,0,-90,0,387.15264
5050,0,-90,10,387.6885
5060,0,-90,20,388.22344
5070,0,-90,30,388.75746
5080,0,-90,40,389.29056
5090,0,-90,50,389.82274
5100,0,-90,60,390.354
5110,0,-90,70,390.88434
5120,0,-90,80,391.41376
5130,0,-90,90,391.94226
5140,0,-90,100,392.46984
5150,0,-90,110,392.9965
5160,0,-90,120,393.52224
5170,0,-90,130,394.04706
5180,0,-90,140,394.57096
5190,0,-90,150,395.09394
5200,0,-90,160,395.616
5210,0,-90,170,396.13714
5220,0,-90,180,396.65736
5230,0,-90,190,397.17666
5240,0,-90,200,397.69504
5250,0,-90,210,398.2125
5260,0,-90,220,398.72904
5270,0,-90,230,399.24466
5280,0,-90,240,399.75936
5290,0,-90,250,400.27314
5300,0,-90,260,400.786
5310,0,-90,270,401.29794
5320,0,-90,280,401.80896
5330,0,-90,290,402.31906
5340,0,-90,300,402.82824
5350,0,-90,310,403.3365
5360,0,-90,320,403.84384
5370,0,-90,330,404.35026
5380,0,-90,340,404.85576
5390,0,-90,350,405.36034
5400,0,-90,0,405.864
5410,0,-90,10,406.36674
5420,0,-90,20,406.86856
5430,0,-90,30,407.36946
5440,0,-90,40,407.86944
5450,0,-90,50,408.3685
5460,0,-90,60,408.86664
5470,0,-90,70,409.36386
5480,0,-90,80,409.86016
5490,0,-90,90,410.35554
5500,0,-90,100,410.85
5510,0,-90,110,411.34354
5520,0,-90,120,411.83616
5530,0,-90,130,412.32786
5540,0,-90,140,412.81864
5550,0,-90,150,413.3085
5560,0,-90,160,413.79744
5570,0,-90,170,414.28546
5580,0,-90,180,414.77256
5590,0,-90,190,415.25874
5600,0,-90,200,415.744
5610,0,-90,210,416.22834
5620,0,-90,220,416.71176
5630,0,-90,230,417.19426
5640,0,-90,240,417.67584
5650,0,-90,250,418.1565
5660,0,-90,260,418.63624
5670,0,-90,270,419.11506
5680,0,-90,280,419.59296
5690,0,-90,290,420.06994
5700,0,-90,300,420.546
5710,0,-90,310,421.02114
5720,0,-90,320,421.49536
5730,0,-90,330,421.96866
5740,0,-90,340,422.44104
5750,0,-90,350,422.9125
5760,0,-90,0,423.38304
5770,0,-90,10,423.85266
5780,0,-90,20,424.32136
5790,0,-90,30,424.78914
5800,0,-90,40,425.256
5810,0,-90,50,425.72194
5820,0,-90,60,426.18696
5830,0,-90,70,426.65106
5840,0,-90,80,427.11424
5850,0,-90,90,427.5765
5860,0,-90,100,428.03784
5870,0,-90,110,428.49826
5880,0,-90,120,428.95776
5890,0,-90,130,429.41634
5900,0,-90,140,429.874
5910,0,-90,150,430.33074
5920,0,-90,160,430.78656
5930,0,-90,170,431.24146
5940,0,-90,180,431.69544
5950,0,-90,190,432.1485
5960,0,-90,200,432.60064
5970,0,-90,210,433.05186
5980,0,-90,220,433.50216
5990,0,-90,230,433.95154
6000,0,-90,240,434.4
6010,0,-90,250,434.84754
6020,0,-90,260,435.29416
6030,0,-90,270,435.73986
6040,0,-90,280,436.18464
6050,0,-90,290,436.6285
6060,0,-90,300,437.07144
6070,0,-90,310,437.51346
6080,0,-90,320,437.95456
6090,0,-90,330,438.39474
6100,0,-90,340,438.834
6110,0,-90,350,439.27234
6120,0,-90,0,439.70976
6130,0,-90,10,440.14626
6140,0,-90,20,440.58184
6150,0,-90,30,441.0165
6160,0,-90,40,441.45024
6170,0,-90,50,441.88306
6180,0,-90,60,442.31496
6190,0,-90,70,442.74594
6200,0,-90,80,443.176
6210,0,-90,90,443.60514
6220,0,-90,100,444.03336
6230,0,-90,110,444.46066
6240,0,-90,120,444.88704
6250,0,-90,130,445.3125
6260,0,-90,140,445.73704
6270,0,-90,150,446.16066
6280,0,-90,160,446.58336
6290,0,-90,170,447.00514
6300,0,-90,180,447.426
6310,0,-90,190,447.84594
6320,0,-90,200,448.26496
6330,0,-90,210,448.68306
6340,0,-90,220,449.10024
6350,0,-90,230,449.5165
6360,0,-90,240,449.93184
6370,0,-90,250,450.34626
6380,0,-90,260,450.75976
6390,0,-90,270,451.17234
6400,0,-90,280,451.584
6410,0,-90,290,451.99474
6420,0,-90,300,452.40456
6430,0,-90,310,452.81346
6440,0,-90,320,453.22144
6450,0,-90,330,453.6285
6460,0,-90,340,454.03464
6470,0,-90,350,454.43986
6480,0,-90,0,454.84416
6490,0,-90,10,455.24754
6500,0,-90,20,455.65
6510,0,-90,30,456.05154
6520,0,-90,40,456.45216
6530,0,-90,50,456.85186
6540,0,-90,60,457.25064
6550,0,-90,70,457.6485
6560,0,-90,80,458.04544
6570,0,-90,90,458.44146
6580,0,-90,100,458.83656
6590,0,-90,110,459.23074
6600,0,-90,120,459.624
6610,0,-90,130,460.01634
6620,0,-90,140,460.40776
6630,0,-90,150,460.79826
6640,0,-90,160,461.18784
6650,0,-90,170,461.5765
6660,0,-90,180,461.96424
6670,0,-90,190,462.35106
6680,0,-90,200,462.73696
6690,0,-90,210,463.12194
6700,0,-90,220,463.506
6710,0,-90,230,463.88914
6720,0,-90,240,464.27136
6730,0,-90,250,464.65266
6740,0,-90,260,465.03304
6750,0,-90,270,465.4125
6760,0,-90,280,465.79104
6770,0,-90,290,466.16866
6780,0,-90,300,466.54536
6790,0,-90,310,466.92114
6800,0,-90,320,467.296
6810,0,-90,330,467.66994
6820,0,-90,340,468.04296
6830,0,-90,350,468.41506
6840,0,-90,0,468.78624
6850,0,-90,10,469.1565
6860,0,-90,20,469.52584
6870,0,-90,30,469.89426
6880,0,-90,40,470.26176
6890,0,-90,50,470.62834
6900,0,-90,60,470.994
6910,0,-90,70,471.35874
6920,0,-90,80,471.72256
6930,0,-90,90,472.08546
6940,0,-90,100,472.44744
6950,0,-90,110,472.8085
6960,0,-90,120,473.16864
6970,0,-90,130,473.52786
6980,0,-90,140,473.88616
6990,0,-90,150,474.24354
7000,0,-90,160,474.6
7010,0,-90,170,474.95554
7020,0,-90,180,475.31016
7030,0,-90,190,475.66386
7040,0,-90,200,476.01664
7050,0,-90,210,476.3685
7060,0,-90,220,476.71944
7070,0,-90,230,477.06946
7080,0,-90,240,477.41856
7090,0,-90,250,477.76674
7100,0,-90,260,478.114
7110,0,-90,270,478.46034
7120,0,-90,280,478.80576
7130,0,-90,290,479.15026
7140,0,-90,300,479.49384
7150,0,-90,310,479.8365
7160,0,-90,320,480.17824
7170,0,-90,330,480.51906
7180,0,-90,340,480.85896
7190,0,-90,350,481.19794
7200,0,-90,0,481.536
7210,0,-90,10,481.87314
7220,0,-90,20,482.20936
7230,0,-90,30,482.54466
7240,0,-90,40,482.87904
7250,0,-90,50,483.2125
7260,0,-90,60,483.54504
7270,0,-90,70,483.87666
7280,0,-90,80,484.20736
7290,0,-90,90,484.53714
7300,0,-90,100,484.866
7310,0,-90,110,485.19394
7320,0,-90,120,485.52096
7330,0,-90,130,485.84706
7340,0,-90,140,486.17224
7350,0,-90,150,486.4965
7360,0,-90,160,486.81984
7370,0,-90,170,487.14226
7380,0,-90,180,487.46376
7390,0,-90,190,487.78434
7400,0,-90,200,488.104
7410,0,-90,210,488.42274
7420,0,-90,220,488.74056
7430,0,-90,230,489.05746
7440,0,-90,240,489.37344
7450,0,-90,250,489.6885
7460,0,-90,260,490.00264
7470,0,-90,270,490.31586
7480,0,-90,280,490.62816
7490,0,-90,290,490.93954
7500,0,-90,300,491.25
7510,0,-90,310,491.55954
7520,0,-90,320,491.86816
7530,0,-90,330,492.17586
7540,0,-90,340,492.48264
7550,0,-90,350,492.7885
7560,0,-90,0,493.09344
7570,0,-90,10,493.39746
7580,0,-90,20,493.70056
7590,0,-90,30,494.00274
7600,0,-90,40,494.304
7610,0,-90,50,494.60434
7620,0,-90,60,494.90376
7630,0,-90,70,495.20226
7640,0,-90,80,495.49984
7650,0,-90,90,495.7965
7660,0,-90,100,496.09224
7670,0,-90,110,496.38706
7680,0,-90,120,496.68096
7690,0,-90,130,496.97394
7700,0,-90,140,497.266
7710,0,-90,150,497.55714
7720,0,-90,160,497.84736
7730,0,-90,170,498.13666
7740,0,-90,180,498.42504
7750,0,-90,190,498.7125
7760,0,-90,200,498.99904
7770,0,-90,210,499.28466
7780,0,-90,220,499.56936
7790,0,-90,230,499.85314
7800,0,-90,240,500.136
7810,0,-90,250,500.41794
7820,0,-90,260,500.69896
7830,0,-90,270,500.97906
7840,0,-90,280,501.25824
7850,0,-90,290,501.5365
7860,0,-90,300,501.81384
7870,0,-90,310,502.09026
7880,0,-90,320,502.36576
7890,0,-90,330,502.64034
7900,0,-90,340,502.914
7910,0,-90,350,503.18674
7920,0,-90,0,503.45856
7930,0,-90,10,503.72946
7940,0,-90,20,503.99944
7950,0,-90,30,504.2685
7960,0,-90,40,504.53664
7970,0,-90,50,504.80386
7980,0,-90,60,505.07016
7990,0,-90,70,505.33554
8000,0,-90,80,505.6
8010,0,-90,90,505.86354
8020,0,-90,100,506.12616
8030,0,-90,110,506.38786
8040,0,-90,120,506.64864
8050,0,-90,130,506.9085
8060,0,-90,140,507.16744
8070,0,-90,150,507.42546
8080,0,-90,160,507.68256
8090,0,-90,170,507.93874
8100,0,-90,180,508.194
8110,0,-90,190,508.44834
8120,0,-90,200,508.70176
8130,0,-90,210,508.95426
8140,0,-90,220,509.20584
8150,0,-90,230,509.4565
8160,0,-90,240,509.70624
8170,0,-90,250,509.95506
8180,0,-90,260,510.20296
8190,0,-90,270,510.44994
8200,0,-90,280,510.696
8210,0,-90,290,510.94114
8220,0,-90,300,511.18536
8230,0,-90,310,511.42866
8240,0,-90,320,511.67104
8250,0,-90,330,511.9125
8260,0,-90,340,512.15304
8270,0,-90,350,512.39266
8280,0,-90,0,512.63136
8290,0,-90,10,512.86914
8300,0,-90,20,513.106
8310,0,-90,30,513.34194
8320,0,-90,40,513.57696
8330,0,-90,50,513.81106
8340,0,-90,60,514.04424
8350,0,-90,70,514.2765
8360,0,-90,80,514.50784
8370,0,-90,90,514.73826
8380,0,-90,100,514.96776
8390,0,-90,110,515.19634
8400,0,-90,120,515.424
8410,0,-90,130,515.65074
8420,0,-90,140,515.87656
8430,0,-90,150,516.10146
8440,0,-90,160,516.32544
8450,0,-90,170,516.5485
8460,0,-90,180,516.77064
8470,0,-90,190,516.99186
8480,0,-90,200,517.21216
8490,0,-90,210,517.43154
8500,0,-90,220,517.65
8510,0,-90,230,517.86754
8520,0,-90,240,518.08416
8530,0,-90,250,518.29986
8540,0,-90,260,518.51464
8550,0,-90,270,518.7285
8560,0,-90,280,518.94144
8570,0,-90,290,519.15346
8580,0,-90,300,519.36456
8590,0,-90,310,519.57474
8600,0,-90,320,519.784
8610,0,-90,330,519.99234
8620,0,-90,340,520.19976
8630,0,-90,350,520.40626
8640,0,-90,0,520.61184
8650,0,-90,10,520.8165
8660,0,-90,20,521.02024
8670,0,-90,30,521.22306
8680,0,-90,40,521.42496
8690,0,-90,50,521.62594
8700,0,-90,60,521.826
8710,0,-90,70,522.02514
8720,0,-90,80,522.22336
8730,0,-90,90,522.42066
8740,0,-90,100,522.61704
8750,0,-90,110,522.8125
8760,0,-90,120,523.00704
8770,0,-90,130,523.20066
8780,0,-90,140,523.39336
8790,0,-90,150,523.58514
8800,0,-90,160,523.776
8810,0,-90,170,523.96594
8820,0,-90,180,524.15496
8830,0,-90,190,524.34306
8840,0,-90,200,524.53024
8850,0,-90,210,524.7165
8860,0,-90,220,524.90184
8870,0,-90,230,525.08626
8880,0,-90,240,525.26976
8890,0,-90,250,525.45234
8900,0,-90,260,525.634
8910,0,-90,270,525.81474
8920,0,-90,280,525.99456
8930,0,-90,290,526.17346
8940,0,-90,300,526.35144
8950,0,-90,310,526.5285
8960,0,-90,320,526.70464
8970,0,-90,330,526.87986
8980,0,-90,340,527.05416
8990,0,-90,350,527.22754
9000,0,-90,0,527.4
9010,0,-90,10,527.57154
9020,0,-90,20,527.74216
9030,0,-90,30,527.91186
9040,0,-90,40,528.08064
9050,0,-90,50,528.2485
9060,0,-90,60,528.41544
9070,0,-90,70,528.58146
9080,0,-90,80,528.74656
9090,0,-90,90,528.91074
9100,0,-90,100,529.074
9110,0,-90,110,529.23634
9120,0,-90,120,529.39776
9130,0,-90,130,529.55826
9140,0,-90,140,529.71784
9150,0,-90,150,529.8765
9160,0,-90,160,530.03424
9170,0,-90,170,530.19106
9180,0,-90,180,530.34696
9190,0,-90,190,530.50194
9200,0,-90,200,530.656
9210,0,-90,210,530.80914
9220,0,-90,220,530.96136
9230,0,-90,230,531.11266
9240,0,-90,240,531.26304
9250,0,-90,250,531.4125
9260,0,-90,260,531.56104
9270,0,-90,270,531.70866
9280,0,-90,280,531.85536
9290,0,-90,290,532.00114
9300,0,-90,300,532.146
9310,0,-90,310,532.28994
9320,0,-90,320,532.43296
9330,0,-90,330,532.57506
9340,0,-90,340,532.71624
9350,0,-90,350,532.8565
9360,0,-90,0,532.99584
9370,0,-90,10,533.13426
9380,0,-90,20,533.27176
9390,0,-90,30,533.40834
9400,0,-90,40,533.544
9410,0,-90,50,533.67874
9420,0,-90,60,533.81256
9430,0,-90,70,533.94546
9440,0,-90,80,534.07744
9450,0,-90,90,534.2085
9460,0,-90,100,534.33864
9470,0,-90,110,534.46786
9480,0,-90,120,534.59616
9490,0,-90,130,534.72354
9500,0,-90,140,534.85
9510,0,-90,150,534.97554
9520,0,-90,160,535.10016
9530,0,-90,170,535.22386
9540,0,-90,180,535.34664
9550,0,-90,190,535.4685
9560,0,-90,200,535.58944
9570,0,-90,210,535.70946
9580,0,-90,220,535.82856
9590,0,-90,230,535.94674
9600,0,-90,240,536.064
9610,0,-90,250,536.18034
9620,0,-90,260,536.29576
9630,0,-90,270,536.41026
9640,0,-90,280,536.52384
9650,0,-90,290,536.6365
9660,0,-90,300,536.74824
9670,0,-90,310,536.85906
9680,0,-90,320,536.96896
9690,0,-90,330,537.07794
9700,0,-90,340,537.186
9710,0,-90,350,537.29314
9720,0,-90,0,537.39936
9730,0,-90,10,537.50466
9740,0,-90,20,537.60904
9750,0,-90,30,537.7125
9760,0,-90,40,537.81504
9770,0,-90,50,537.91666
9780,0,-90,60,538.01736
9790,0,-90,70,538.11714
9800,0,-90,80,538.216
9810,0,-90,90,538.31394
9820,0,-90,100,538.41096
9830,0,-90,110,538.50706
9840,0,-90,120,538.60224
9850,0,-90,130,538.6965
9860,0,-90,140,538.78984
9870,0,-90,150,538.88226
9880,0,-90,160,538.97376
9890,0,-90,170,539.06434
9900,0,-90,180,539.154
9910,0,-90,190,539.24274
9920,0,-90,200,539.33056
9930,0,-90,210,539.41746
9940,0,-90,220,539.50344
9950,0,-90,230,539.5885
9960,0,-90,240,539.67264
9970,0,-90,250,539.75586
9980,0,-90,260,539.83816
9990,0,-90,270,539.91954
10000,0,-90,280,540
10010,0,-90,290,540.07954
10020,0,-90,300,540.15816
10030,0,-90,310,540.23586
10040,0,-90,320,540.31264
10050,0,-90,330,540.3885
10060,0,-90,340,540.46344
10070,0,-90,350,540.53746
10080,0,-90,0,540.61056
10090,0,-90,10,540.68274
10100,0,-90,20,540.754
10110,0,-90,30,540.82434
10120,0,-90,40,540.89376
10130,0,-90,50,540.96226
10140,0,-90,60,541.02984
10150,0,-90,70,541.0965
10160,0,-90,80,541.16224
10170,0,-90,90,541.22706
10180,0,-90,100,541.29096
10190,0,-90,110,541.35394
10200,0,-90,120,541.416
10210,0,-90,130,541.47714
10220,0,-90,140,541.53736
10230,0,-90,150,541.59666
10240,0,-90,160,541.65504
10250,0,-90,170,541.7125
10260,0,-90,180,541.76904
10270,0,-90,190,541.82466
10280,0,-90,200,541.87936
10290,0,-90,210,541.93314
10300,0,-90,220,541.986
10310,0,-90,230,542.03794
10320,0,-90,240,542.08896
10330,0,-90,250,542.13906
10340,0,-90,260,542.18824
10350,0,-90,270,542.2365
10360,0,-90,280,542.28384
10370,0,-90,290,542.33026
10380,0,-90,300,542.37576
10390,0,-90,310,542.42034
10400,0,-90,320,542.464
10410,0,-90,330,542.50674
10420,0,-90,340,542.54856
10430,0,-90,350,542.58946
10440,0,-90,0,542.62944
10450,0,-90,10,542.6685
10460,0,-90,20,542.70664
10470,0,-90,30,542.74386
10480,0,-90,40,542.78016
10490,0,-90,50,542.81554
10500,0,-90,60,542.85
10510,0,-90,70,542.88354
10520,0,-90,80,542.91616
10530,0,-90,90,542.94786
10540,0,-90,100,542.97864
10550,0,-90,110,543.0085
10560,0,-90,120,543.03744
10570,0,-90,130,543.06546
10580,0,-90,140,543.09256
10590,0,-90,150,543.11874
10600,0,-90,160,543.144
10610,0,-90,170,543.16834
10620,0,-90,180,543.19176
10630,0,-90,190,543.21426
10640,0,-90,200,543.23584
10650,0,-90,210,543.2565
10660,0,-90,220,543.27624
10670,0,-90,230,543.29506
10680,0,-90,240,543.31296
10690,0,-90,250,543.32994
10700,0,-90,260,543.346
10710,0,-90,270,543.36114
10720,0,-90,280,543.37536
10730,0,-90,290,543.38866
10740,0,-90,300,543.40104
10750,0,-90,310,543.4125
10760,0,-90,320,543.42304
10770,0,-90,330,543.43266
10780,0,-90,340,543.44136
10790,0,-90,350,543.44914
10800,0,-90,0,543.456
10810,0,-90,10,543.46194
10820,0,-90,20,543.46696
10830,0,-90,30,543.47106
10840,0,-90,40,543.47424
10850,0,-90,50,543.4765
10860,0,-90,60,543.47784
10870,0,-90,70,543.47826
10880,0,-90,80,543.47776
10890,0,-90,90,543.47634
10900,0,-90,100,543.474
10910,0,-90,110,543.47074
10920,0,-90,120,543.46656
10930,0,-90,130,543.46146
10940,0,-90,140,543.45544
10950,0,-90,150,543.4485
10960,0,-90,160,543.44064
10970,0,-90,170,543.43186
10980,0,-90,180,543.42216
10990,0,-90,190,543.41154
11000,0,-90,200,543.4
11010,0,-90,210,543.38754
11020,0,-90,220,543.37416
11030,0,-90,230,543.35986
11040,0,-90,240,543.34464
11050,0,-90,250,543.3285
11060,0,-90,260,543.31144
11070,0,-90,270,543.29346
11080,0,-90,280,543.27456
11090,0,-90,290,543.25474
11100,0,-90,300,543.234
11110,0,-90,310,543.21234
11120,0,-90,320,543.18976
11130,0,-90,330,543.16626
11140,0,-90,340,543.14184
11150,0,-90,350,543.1165
11160,0,-90,0,543.09024
11170,0,-90,10,543.06306
11180,0,-90,20,543.03496
11190,0,-90,30,543.00594
11200,0,-90,40,542.976
11210,0,-90,50,542.94514
11220,0,-90,60,542.91336
11230,0,-90,70,542.88066
11240,0,-90,80,542.84704
11250,0,-90,90,542.8125
11260,0,-90,100,542.77704
11270,0,-90,110,542.74066
11280,0,-90,120,542.70336
11290,0,-90,130,542.66514
11300,0,-90,140,542.626
11310,0,-90,150,542.58594
11320,0,-90,160,542.54496
11330,0,-90,170,542.50306
11340,0,-90,180,542.46024
11350,0,-90,190,542.4165
11360,0,-90,200,542.37184
11370,0,-90,210,542.32626
11380,0,-90,220,542.27976
11390,0,-90,230,542.23234
11400,0,-90,240,542.184
11410,0,-90,250,542.13474
11420,0,-90,260,542.08456
11430,0,-90,270,542.03346
11440,0,-90,280,541.98144
11450,0,-90,290,541.9285
11460,0,-90,300,541.87464
11470,0,-90,310,541.81986
11480,0,-90,320,541.76416
11490,0,-90,330,541.70754
11500,0,-90,340,541.65
11510,0,-90,350,541.59154
11520,0,-90,0,541.53216
11530,0,-90,10,541.47186
11540,0,-90,20,541.41064
11550,0,-90,30,541.3485
11560,0,-90,40,541.28544
11570,0,-90,50,541.22146
11580,0,-90,60,541.15656
11590,0,-90,70,541.09074
11600,0,-90,80,541.024
11610,0,-90,90,540.95634
11620,0,-90,100,540.88776
11630,0,-90,110,540.81826
11640,0,-90,120,540.74784
11650,0,-90,130,540.6765
11660,0,-90,140,540.60424
11670,0,-90,150,540.53106
11680,0,-90,160,540.45696
11690,0,-90,170,540.38194
11700,0,-90,180,540.306
11710,0,-90,190,540.22914
11720,0,-90,200,540.15136
11730,0,-90,210,540.07266
11740,0,-90,220,539.99304
11750,0,-90,230,539.9125
11760,0,-90,240,539.83104
11770,0,-90,250,539.74866
11780,0,-90,260,539.66536
11790,0,-90,270,539.58114
11800,0,-90,280,539.496
11810,0,-90,290,539.40994
11820,0,-90,300,539.32296
11830,0,-90,310,539.23506
11840,0,-90,320,539.14624
11850,0,-90,330,539.0565
11860,0,-90,340,538.96584
11870,0,-90,350,538.87426
11880,0,-90,0,538.78176
11890,0,-90,10,538.68834
11900,0,-90,20,538.594
11910,0,-90,30,538.49874
11920,0,-90,40,538.40256
11930,0,-90,50,538.30546
11940,0,-90,60,538.20744
11950,0,-90,70,538.1085
11960,0,-90,80,538.00864
11970,0,-90,90,537.90786
11980,0,-90,100,537.80616
11990,0,-90,110,537.70354
12000,0,-90,120,537.6
12010,0,-90,130,537.49554
12020,0,-90,140,537.39016
12030,0,-90,150,537.28386
12040,0,-90,160,537.17664
12050,0,-90,170,537.0685
12060,0,-90,180,536.95944
12070,0,-90,190,536.84946
12080,0,-90,200,536.73856
12090,0,-90,210,536.62674
12100,0,-90,220,536.514
12110,0,-90,230,536.40034
12120,0,-90,240,536.28576
12130,0,-90,250,536.17026
12140,0,-90,260,536.05384
12150,0,-90,270,535.9365
12160,0,-90,280,535.81824
12170,0,-90,290,535.69906
12180,0,-90,300,535.57896
12190,0,-90,310,535.45794
12200,0,-90,320,535.336
12210,0,-90,330,535.21314
12220,0,-90,340,535.08936
12230,0,-90,350,534.96466
12240,0,-90,0,534.83904
12250,0,-90,10,534.7125
12260,0,-90,20,534.58504
12270,0,-90,30,534.45666
12280,0,-90,40,534.32736
12290,0,-90,50,534.19714
12300,0,-90,60,534.066
12310,0,-90,70,533.93394
12320,0,-90,80,533.80096
12330,0,-90,90,533.66706
12340,0,-90,100,533.53224
12350,0,-90,110,533.3965
12360,0,-90,120,533.25984
12370,0,-90,130,533.12226
12380,0,-90,140,532.98376
12390,0,-90,150,532.84434
12400,0,-90,160,532.704
12410,0,-90,170,532.56274
12420,0,-90,180,532.42056
12430,0,-90,190,532.27746
12440,0,-90,200,532.13344
12450,0,-90,210,531.9885
12460,0,-90,220,531.84264
12470,0,-90,230,531.69586
12480,0,-90,240,531.54816
12490,0,-90,250,531.39954
12500,0,-90,260,531.25
12510,0,-90,270,531.09954
12520,0,-90,280,530.94816
12530,0,-90,290,530.79586
12540,0,-90,300,530.64264
12550,0,-90,310,530.4885
12560,0,-90,320,530.33344
12570,0,-90,330,530.17746
12580,0,-90,340,530.02056
12590,0,-90,350,529.86274
12600,0,-90,0,529.704
12610,0,-90,10,529.54434
12620,0,-90,20,529.38376
12630,0,-90,30,529.22226
12640,0,-90,40,529.05984
12650,0,-90,50,528.8965
12660,0,-90,60,528.73224
12670,0,-90,70,528.56706
12680,0,-90,80,528.40096
12690,0,-90,90,528.23394
12700,0,-90,100,528.066
12710,0,-90,110,527.89714
12720,0,-90,120,527.72736
12730,0,-90,130,527.55666
12740,0,-90,140,527.38504
12750,0,-90,150,527.2125
12760,0,-90,160,527.03904
12770,0,-90,170,526.86466
12780,0,-90,180,526.68936
12790,0,-90,190,526.51314
12800,0,-90,200,526.336
12810,0,-90,210,526.15794
12820,0,-90,220,525.97896
12830,0,-90,230,525.79906
12840,0,-90,240,525.61824
12850,0,-90,250,525.4365
12860,0,-90,260,525.25384
12870,0,-90,270,525.07026
12880,0,-90,280,524.88576
12890,0,-90,290,524.70034
12900,0,-90,300,524.514
12910,0,-90,310,524.32674
12920,0,-90,320,524.13856
12930,0,-90,330,523.94946
12940,0,-90,340,523.75944
12950,0,-90,350,523.5685
12960,0,-90,0,523.37664
12970,0,-90,10,523.18386
12980,0,-90,20,522.99016
12990,0,-90,30,522.79554
13000,0,-90,40,522.6
13010,0,-90,50,522.40354
13020,0,-90,60,522.20616
13030,0,-90,70,522.00786
13040,0,-90,80,521.80864
13050,0,-90,90,521.6085
13060,0,-90,100,521.40744
13070,0,-90,110,521.20546
13080,0,-90,120,521.00256
13090,0,-90,130,520.79874
13100,0,-90,140,520.594
13110,0,-90,150,520.38834
13120,0,-90,160,520.18176
13130,0,-90,170,519.97426
13140,0,-90,180,519.76584
13150,0,-90,190,519.5565
13160,0,-90,200,519.34624
13170,0,-90,210,519.13506
13180,0,-90,220,518.92296
13190,0,-90,230,518.70994
13200,0,-90,240,518.496
13210,0,-90,250,518.28114
13220,0,-90,260,518.06536
13230,0,-90,270,517.84866
13240,0,-90,280,517.63104
13250,0,-90,290,517.4125
13260,0,-90,300,517.19304
13270,0,-90,310,516.97266
13280,0,-90,320,516.75136
13290,0,-90,330,516.52914
13300,0,-90,340,516.306
13310,0,-90,350,516.08194
13320,0,-90,0,515.85696
13330,0,-90,10,515.63106
13340,0,-90,20,515.40424
13350,0,-90,30,515.1765
13360,0,-90,40,514.94784
13370,0,-90,50,514.71826
13380,0,-90,60,514.48776
13390,0,-90,70,514.25634
13400,0,-90,80,514.024
13410,0,-90,90,513.79074
13420,0,-90,100,513.55656
13430,0,-90,110,513.32146
13440,0,-90,120,513.08544
13450,0,-90,130,512.8485
13460,0,-90,140,512.61064
13470,0,-90,150,512.37186
13480,0,-90,160,512.13216
13490,0,-90,170,511.89154
13500,0,-90,180,511.65
13510,0,-90,190,511.40754
13520,0,-90,200,511.16416
13530,0,-90,210,510.91986
13540,0,-90,220,510.67464
13550,0,-90,230,510.4285
13560,0,-90,240,510.18144
13570,0,-90,250,509.93346
13580,0,-90,260,509.68456
13590,0,-90,270,509.43474
13600,0,-90,280,509.184
13610,0,-90,290,508.93234
13620,0,-90,300,508.67976
13630,0,-90,310,508.42626
13640,0,-90,320,508.17184
13650,0,-90,330,507.9165
13660,0,-90,340,507.66024
13670,0,-90,350,507.40306
13680,0,-90,0,507.14496
13690,0,-90,10,506.88594
13700,0,-90,20,506.626
13710,0,-90,30,506.36514
13720,0,-90,40,506.10336
13730,0,-90,50,505.84066
13740,0,-90,60,505.57704
13750,0,-90,70,505.3125
13760,0,-90,80,505.04704
13770,0,-90,90,504.78066
13780,0,-90,100,504.51336
13790,0,-90,110,504.24514
13800,0,-90,120,503.976
13810,0,-90,130,503.70594
13820,0,-90,140,503.43496
13830,0,-90,150,503.16306
13840,0,-90,160,502.89024
13850,0,-90,170,502.6165
13860,0,-90,180,502.34184
13870,0,-90,190,502.06626
13880,0,-90,200,501.78976
13890,0,-90,210,501.51234
13900,0,-90,220,501.234
13910,0,-90,230,500.95474
13920,0,-90,240,500.67456
13930,0,-90,250,500.39346
13940,0,-90,260,500.11144
13950,0,-90,270,499.8285
13960,0,-90,280,499.54464
13970,0,-90,290,499.25986
13980,0,-90,300,498.97416
13990,0,-90,310,498.68754
14000,0,-90,320,498.4
14010,0,-90,330,498.11154
14020,0,-90,340,497.82216
14030,0,-90,350,497.53186
14040,0,-90,0,497.24064
14050,0,-90,10,496.9485
14060,0,-90,20,496.65544
14070,0,-90,30,496.36146
14080,0,-90,40,496.06656
14090,0,-90,50,495.77074
14100,0,-90,60,495.474
14110,0,-90,70,495.17634
14120,0,-90,80,494.87776
14130,0,-90,90,494.57826
14140,0,-90,100,494.27784
14150,0,-90,110,493.9765
14160,0,-90,120,493.67424
14170,0,-90,130,493.37106
14180,0,-90,140,493.06696
14190,0,-90,150,492.76194
14200,0,-90,160,492.456
14210,0,-90,170,492.14914
14220,0,-90,180,491.84136
14230,0,-90,190,491.53266
14240,0,-90,200,491.22304
14250,0,-90,210,490.9125
14260,0,-90,220,490.60104
14270,0,-90,230,490.28866
14280,0,-90,240,489.97536
14290,0,-90,250,489.66114
14300,0,-90,260,489.346
14310,0,-90,270,489.02994
14320,0,-90,280,488.71296
14330,0,-90,290,488.39506
14340,0,-90,300,488.07624
14350,0,-90,310,487.7565
14360,0,-90,320,487.43584
14370,0,-90,330,487.11426
14380,0,-90,340,486.79176
14390,0,-90,350,486.46834
14400,0,-90,0,486.144
14410,0,-90,10,485.81874
14420,0,-90,20,485.49256
14430,0,-90,30,485.16546
14440,0,-90,40,484.83744
14450,0,-90,50,484.5085
14460,0,-90,60,484.17864
14470,0,-90,70,483.84786
14480,0,-90,80,483.51616
14490,0,-90,90,483.18354
14500,0,-90,100,482.85
14510,0,-90,110,482.51554
14520,0,-90,120,482.18016
14530,0,-90,130,481.84386
14540,0,-90,140,481.50664
14550,0,-90,150,481.1685
14560,0,-90,160,480.82944
14570,0,-90,170,480.48946
14580,0,-90,180,480.14856
14590,0,-90,190,479.80674
14600,0,-90,200,479.464
14610,0,-90,210,479.12034
14620,0,-90,220,478.77576
14630,0,-90,230,478.43026
14640,0,-90,240,478.08384
14650,0,-90,250,477.7365
14660,0,-90,260,477.38824
14670,0,-90,270,477.03906
14680,0,-90,280,476.68896
14690,0,-90,290,476.33794
14700,0,-90,300,475.986
14710,0,-90,310,475.63314
14720,0,-90,320,475.27936
14730,0,-90,330,474.92466
14740,0,-90,340,474.56904
14750,0,-90,350,474.2125
14760,0,-90,0,473.85504
14770,0,-90,10,473.49666
14780,0,-90,20,473.13736
14790,0,-90,30,472.77714
14800,0,-90,40,472.416
14810,0,-90,50,472.05394
14820,0,-90,60,471.69096
14830,0,-90,70,471.32706
14840,0,-90,80,470.96224
14850,0,-90,90,470.5965
14860,0,-90,100,470.22984
14870,0,-90,110,469.86226
14880,0,-90,120,469.49376
14890,0,-90,130,469.12434
14900,0,-90,140,468.754
14910,0,-90,150,468.38274
14920,0,-90,160,468.01056
14930,0,-90,170,467.63746
14940,0,-90,180,467.26344
14950,0,-90,190,466.8885
14960,0,-90,200,466.51264
14970,0,-90,210,466.13586
14980,0,-90,220,465.75816
14990,0,-90,230,465.37954
15000,0,-90,240,465
15010,0,-90,250,464.61954
15020,0,-90,260,464.23816
15030,0,-90,270,463.85586
15040,0,-90,280,463.47264
15050,0,-90,290,463.0885
15060,0,-90,300,462.70344
15070,0,-90,310,462.31746
15080,0,-90,320,461.93056
15090,0,-90,330,461.54274
15100,0,-90,340,461.154
15110,0,-90,350,460.76434
15120,0,-90,0,460.37376
15130,0,-90,10,459.98226
15140,0,-90,20,459.58984
15150,0,-90,30,459.1965
15160,0,-90,40,458.80224
15170,0,-90,50,458.40706
15180,0,-90,60,458.01096
15190,0,-90,70,457.61394
15200,0,-90,80,457.216
15210,0,-90,90,456.81714
15220,0,-90,100,456.41736
15230,0,-90,110,456.01666
15240,0,-90,120,455.61504
15250,0,-90,130,455.2125
15260,0,-90,140,454.80904
15270,0,-90,150,454.40466
15280,0,-90,160,453.99936
15290,0,-90,170,453.59314
15300,0,-90,180,453.186
15310,0,-90,190,452.77794
15320,0,-90,200,452.36896
15330,0,-90,210,451.95906
15340,0,-90,220,451.54824
15350,0,-90,230,451.1365
15360,0,-90,240,450.72384
15370,0,-90,250,450.31026
15380,0,-90,260,449.89576
15390,0,-90,270,449.48034
15400,0,-90,280,449.064
15410,0,-90,290,448.64674
15420,0,-90,300,448.22856
15430,0,-90,310,447.80946
15440,0,-90,320,447.38944
15450,0,-90,330,446.9685
15460,0,-90,340,446.54664
15470,0,-90,350,446.12386
15480,0,-90,0,445.70016
15490,0,-90,10,445.27554
15500,0,-90,20,444.85
15510,0,-90,30,444.42354
15520,0,-90,40,443.99616
15530,0,-90,50,443.56786
15540,0,-90,60,443.13864
15550,0,-90,70,442.7085
15560,0,-90,80,442.27744
15570,0,-90,90,441.84546
15580,0,-90,100,441.41256
15590,0,-90,110,440.97874
15600,0,-90,120,440.544
15610,0,-90,130,440.10834
15620,0,-90,140,439.67176
15630,0,-90,150,439.23426
15640,0,-90,160,438.79584
15650,0,-90,170,438.3565
15660,0,-90,180,437.91624
15670,0,-90,190,437.47506
15680,0,-90,200,437.03296
15690,0,-90,210,436.58994
15700,0,-90,220,436.146
15710,0,-90,230,435.70114
15720,0,-90,240,435.25536
15730,0,-90,250,434.80866
15740,0,-90,260,434.36104
15750,0,-90,270,433.9125
15760,0,-90,280,433.46304
15770,0,-90,290,433.01266
15780,0,-90,300,432.56136
15790,0,-90,310,432.10914
15800,0,-90,320,431.656
15810,0,-90,330,431.20194
15820,0,-90,340,430.74696
15830,0,-90,350,430.29106
15840,0,-90,0,429.83424
15850,0,-90,10,429.3765
15860,0,-90,20,428.91784
15870,0,-90,30,428.45826
15880,0,-90,40,427.99776
15890,0,-90,50,427.53634
15900,0,-90,60,427.074
15910,0,-90,70,426.61074
15920,0,-90,80,426.14656
15930,0,-90,90,425.68146
15940,0,-90,100,425.21544
15950,0,-90,110,424.7485
15960,0,-90,120,424.28064
15970,0,-90,130,423.81186
15980,0,-90,140,423.34216
15990,0,-90,150,422.87154
16000,0,-90,160,422.4
16010,0,-90,170,421.92754
16020,0,-90,180,421.45416
16030,0,-90,190,420.97986
16040,0,-90,200,420.50464
16050,0,-90,210,420.0285
16060,0,-90,220,419.55144
16070,0,-90,230,419.07346
16080,0,-90,240,418.59456
16090,0,-90,250,418.11474
16100,0,-90,260,417.634
16110,0,-90,270,417.15234
16120,0,-90,280,416.66976
16130,0,-90,290,416.18626
16140,0,-90,300,415.70184
16150,0,-90,310,415.2165
16160,0,-90,320,414.73024
16170,0,-90,330,414.24306
16180,0,-90,340,413.75496
16190,0,-90,350,413.26594
16200,0,-90,0,412.776
16210,0,-90,10,412.28514
16220,0,-90,20,411.79336
16230,0,-90,30,411.30066
16240,0,-90,40,410.80704
16250,0,-90,50,410.3125
16260,0,-90,60,409.81704
16270,0,-90,70,409.32066
16280,0,-90,80,408.82336
16290,0,-90,90,408.32514
16300,0,-90,100,407.826
16310,0,-90,110,407.32594
16320,0,-90,120,406.82496
16330,0,-90,130,406.32306
16340,0,-90,140,405.82024
16350,0,-90,150,405.3165
16360,0,-90,160,404.81184
16370,0,-90,170,404.30626
16380,0,-90,180,403.79976
16390,0,-90,190,403.29234
16400,0,-90,200,402.784
16410,0,-90,210,402.27474
16420,0,-90,220,401.76456
16430,0,-90,230,401.25346
16440,0,-90,240,400.74144
16450,0,-90,250,400.2285
16460,0,-90,260,399.71464
16470,0,-90,270,399.19986
16480,0,-90,280,398.68416
16490,0,-90,290,398.16754
16500,0,-90,300,397.65
16510,0,-90,310,397.13154
16520,0,-90,320,396.61216
16530,0,-90,330,396.09186
16540,0,-90,340,395.57064
16550,0,-90,350,395.0485
16560,0,-90,0,394.52544
16570,0,-90,10,394.00146
16580,0,-90,20,393.47656
16590,0,-90,30,392.95074
16600,0,-90,40,392.424
16610,0,-90,50,391.89634
16620,0,-90,60,391.36776
16630,0,-90,70,390.83826
16640,0,-90,80,390.30784
16650,0,-90,90,389.7765
16660,0,-90,100,389.24424
16670,0,-90,110,388.71106
16680,0,-90,120,388.17696
16690,0,-90,130,387.64194
16700,0,-90,140,387.106
16710,0,-90,150,386.56914
16720,0,-90,160,386.03136
16730,0,-90,170,385.49266
16740,0,-90,180,384.95304
16750,0,-90,190,384.4125
16760,0,-90,200,383.87104
16770,0,-90,210,383.32866
16780,0,-90,220,382.78536
16790,0,-90,230,382.24114
16800,0,-90,240,381.696
16810,0,-90,250,381.14994
16820,0,-90,260,380.60296
16830,0,-90,270,380.05506
16840,0,-90,280,379.50624
16850,0,-90,290,378.9565
16860,0,-90,300,378.40584
16870,0,-90,310,377.85426
16880,0,-90,320,377.30176
16890,0,-90,330,376.74834
16900,0,-90,340,376.194
16910,0,-90,350,375.63874
16920,0,-90,0,375.08256
16930,0,-90,10,374.52546
16940,0,-90,20,373.96744
16950,0,-90,30,373.4085
16960,0,-90,40,372.84864
16970,0,-90,50,372.28786
16980,0,-90,60,371.72616
16990,0,-90,70,371.16354
17000,0,-90,80,370.6
17010,0,-90,90,370.03554
17020,0,-90,100,369.47016
17030,0,-90,110,368.90386
17040,0,-90,120,368.33664
17050,0,-90,130,367.7685
17060,0,-90,140,367.19944
17070,0,-90,150,366.62946
17080,0,-90,160,366.05856
17090,0,-90,170,365.48674
17100,0,-90,180,364.914
17110,0,-90,190,364.34034
17120,0,-90,200,363.76576
17130,0,-90,210,363.19026
17140,0,-90,220,362.61384
17150,0,-90,230,362.0365
17160,0,-90,240,361.45824
17170,0,-90,250,360.87906
17180,0,-90,260,360.29896
17190,0,-90,270,359.71794
17200,0,-90,280,359.136
17210,0,-90,290,358.55314
17220,0,-90,300,357.96936
17230,0,-90,310,357.38466
17240,0,-90,320,356.79904
17250,0,-90,330,356.2125
17260,0,-90,340,355.62504
17270,0,-90,350,355.03666
17280,0,-90,0,354.44736
17290,0,-90,10,353.85714
17300,0,-90,20,353.266
17310,0,-90,30,352.67394
17320,0,-90,40,352.08096
17330,0,-90,50,351.48706
17340,0,-90,60,350.89224
17350,0,-90,70,350.2965
17360,0,-90,80,349.69984
17370,0,-90,90,349.10226
17380,0,-90,100,348.50376
17390,0,-90,110,347.90434
17400,0,-90,120,347.304
17410,0,-90,130,346.70274
17420,0,-90,140,346.10056
17430,0,-90,150,345.49746
17440,0,-90,160,344.89344
17450,0,-90,170,344.2885
17460,0,-90,180,343.68264
17470,0,-90,190,343.07586
17480,0,-90,200,342.46816
17490,0,-90,210,341.85954
17500,0,-90,220,341.25
17510,0,-90,230,340.63954
17520,0,-90,240,340.02816
17530,0,-90,250,339.41586
17540,0,-90,260,338.80264
17550,0,-90,270,338.1885
17560,0,-90,280,337.57344
17570,0,-90,290,336.95746
17580,0,-90,300,336.34056
17590,0,-90,310,335.72274
17600,0,-90,320,335.104
17610,0,-90,330,334.48434
17620,0,-90,340,333.86376
17630,0,-90,350,333.24226
17640,0,-90,0,332.61984
17650,0,-90,10,331.9965
17660,0,-90,20,331.37224
17670,0,-90,30,330.74706
17680,0,-90,40,330.12096
17690,0,-90,50,329.49394
17700,0,-90,60,328.866
17710,0,-90,70,328.23714
17720,0,-90,80,327.60736
17730,0,-90,90,326.97666
17740,0,-90,100,326.34504
17750,0,-90,110,325.7125
17760,0,-90,120,325.07904
17770,0,-90,130,324.44466
17780,0,-90,140,323.80936
17790,0,-90,150,323.17314
17800,0,-90,160,322.536
17810,0,-90,170,321.89794
17820,0,-90,180,321.25896
17830,0,-90,190,320.61906
17840,0,-90,200,319.97824
17850,0,-90,210,319.3365
17860,0,-90,220,318.69384
17870,0,-90,230,318.05026
17880,0,-90,240,317.40576
17890,0,-90,250,316.76034
17900,0,-90,260,316.114
17910,0,-90,270,315.46674
17920,0,-90,280,314.81856
17930,0,-90,290,314.16946
17940,0,-90,300,313.51944
17950,0,-90,310,312.8685
17960,0,-90,320,312.21664
17970,0,-90,330,311.56386
17980,0,-90,340,310.91016
17990,0,-90,350,310.25554
18000,0,-90,0,309.6
18010,0,-90,10,308.94354
18020,0,-90,20,308.28616
18030,0,-90,30,307.62786
18040,0,-90,40,306.96864
18050,0,-90,50,306.3085
18060,0,-90,60,305.64744
18070,0,-90,70,304.98546
18080,0,-90,80,304.32256
18090,0,-90,90,303.65874
18100,0,-90,100,302.994
18110,0,-90,110,302.32834
18120,0,-90,120,301.66176
18130,0,-90,130,300.99426
18140,0,-90,140,300.32584
18150,0,-90,150,299.6565
18160,0,-90,160,298.98624
18170,0,-90,170,298.31506
18180,0,-90,180,297.64296
18190,0,-90,190,296.96994
18200,0,-90,200,296.296
18210,0,-90,210,295.62114
18220,0,-90,220,294.94536
18230,0,-90,230,294.26866
18240,0,-90,240,293.59104
18250,0,-90,250,292.9125
18260,0,-90,260,292.23304
18270,0,-90,270,291.55266
18280,0,-90,280,290.87136
18290,0,-90,290,290.18914
18300,0,-90,300,289.506
18310,0,-90,310,288.82194
18320,0,-90,320,288.13696
18330,0,-90,330,287.45106
18340,0,-90,340,286.76424
18350,0,-90,350,286.0765
18360,0,-90,0,285.38784
18370,0,-90,10,284.69826
18380,0,-90,20,284.00776
18390,0,-90,30,283.31634
18400,0,-90,40,282.624
18410,0,-90,50,281.93074
18420,0,-90,60,281.23656
18430,0,-90,70,280.54146
18440,0,-90,80,279.84544
18450,0,-90,90,279.1485
18460,0,-90,100,278.45064
18470,0,-90,110,277.75186
18480,0,-90,120,277.05216
18490,0,-90,130,276.35154
18500,0,-90,140,275.65
18510,0,-90,150,274.94754
18520,0,-90,160,274.24416
18530,0,-90,170,273.53986
18540,0,-90,180,272.83464
18550,0,-90,190,272.1285
18560,0,-90,200,271.42144
18570,0,-90,210,270.71346
18580,0,-90,220,270.00456
18590,0,-90,230,269.29474
18600,0,-90,240,268.584
18610,0,-90,250,267.87234
18620,0,-90,260,267.15976
18630,0,-90,270,266.44626
18640,0,-90,280,265.73184
18650,0,-90,290,265.0165
18660,0,-90,300,264.30024
18670,0,-90,310,263.58306
18680,0,-90,320,262.86496
18690,0,-90,330,262.14594
18700,0,-90,340,261.426
18710,0,-90,350,260.70514
18720,0,-90,0,259.98336
18730,0,-90,10,259.26066
18740,0,-90,20,258.53704
18750,0,-90,30,257.8125
18760,0,-90,40,257.08704
18770,0,-90,50,256.36066
18780,0,-90,60,255.63336
18790,0,-90,70,254.90514
18800,0,-90,80,254.176
18810,0,-90,90,253.44594
18820,0,-90,100,252.71496
18830,0,-90,110,251.98306
18840,0,-90,120,251.25024
18850,0,-90,130,250.5165
18860,0,-90,140,249.78184
18870,0,-90,150,249.04626
18880,0,-90,160,248.30976
18890,0,-90,170,247.57234
18900,0,-90,180,246.834
18910,0,-90,190,246.09474
18920,0,-90,200,245.35456
18930,0,-90,210,244.61346
18940,0,-90,220,243.87144
18950,0,-90,230,243.1285
18960,0,-90,240,242.38464
18970,0,-90,250,241.63986
18980,0,-90,260,240.89416
18990,0,-90,270,240.14754
19000,0,-90,280,239.4
19010,0,-90,290,238.65154
19020,0,-90,300,237.90216
19030,0,-90,310,237.15186
19040,0,-90,320,236.40064
19050,0,-90,330,235.6485
19060,0,-90,340,234.89544
19070,0,-90,350,234.14146
19080,0,-90,0,233.38656
19090,0,-90,10,232.63074
19100,0,-90,20,231.874
19110,0,-90,30,231.11634
19120,0,-90,40,230.35776
19130,0,-90,50,229.59826
19140,0,-90,60,228.83784
19150,0,-90,70,228.0765
19160,0,-90,80,227.31424
19170,0,-90,90,226.55106
19180,0,-90,100,225.78696
19190,0,-90,110,225.02194
19200,0,-90,120,224.256
19210,0,-90,130,223.48914
19220,0,-90,140,222.72136
19230,0,-90,150,221.95266
19240,0,-90,160,221.18304
19250,0,-90,170,220.4125
19260,0,-90,180,219.64104
19270,0,-90,190,218.86866
19280,0,-90,200,218.09536
19290,0,-90,210,217.32114
19300,0,-90,220,216.546
19310,0,-90,230,215.76994
19320,0,-90,240,214.99296
19330,0,-90,250,214.21506
19340,0,-90,260,213.43624
19350,0,-90,270,212.6565
19360,0,-90,280,211.87584
19370,0,-90,290,211.09426
19380,0,-90,300,210.31176
19390,0,-90,310,209.52834
19400,0,-90,320,208.744
19410,0,-90,330,207.95874
19420,0,-90,340,207.17256
19430,0,-90,350,206.38546
19440,0,-90,0,205.59744
19450,0,-90,10,204.8085
19460,0,-90,20,204.01864
19470,0,-90,30,203.22786
19480,0,-90,40,202.43616
19490,0,-90,50,201.64354
19500,0,-90,60,200.85
19510,0,-90,70,200.05554
19520,0,-90,80,199.26016
19530,0,-90,90,198.46386
19540,0,-90,100,197.66664
19550,0,-90,110,196.8685
19560,0,-90,120,196.06944
19570,0,-90,130,195.26946
19580,0,-90,140,194.46856
19590,0,-90,150,193.66674
19600,0,-90,160,192.864
19610,0,-90,170,192.06034
19620,0,-90,180,191.25576
19630,0,-90,190,190.45026
19640,0,-90,200,189.64384
19650,0,-90,210,188.8365
19660,0,-90,220,188.02824
19670,0,-90,230,187.21906
19680,0,-90,240,186.40896
19690,0,-90,250,185.59794
19700,0,-90,260,184.786
19710,0,-90,270,183.97314
19720,0,-90,280,183.15936
19730,0,-90,290,182.34466
19740,0,-90,300,181.52904
19750,0,-90,310,180.7125
19760,0,-90,320,179.89504
19770,0,-90,330,179.07666
19780,0,-90,340,178.25736
19790,0,-90,350,177.43714
19800,0,-90,0,176.616
19810,0,-90,10,175.79394
19820,0,-90,20,174.97096
19830,0,-90,30,174.14706
19840,0,-90,40,173.32224
19850,0,-90,50,172.4965
19860,0,-90,60,171.66984
19870,0,-90,70,170.84226
19880,0,-90,80,170.01376
19890,0,-90,90,169.18434
19900,0,-90,100,168.354
19910,0,-90,110,167.52274
19920,0,-90,120,166.69056
19930,0,-90,130,165.85746
19940,0,-90,140,165.02344
19950,0,-90,150,164.1885
19960,0,-90,160,163.35264
19970,0,-90,170,162.51586
19980,0,-90,180,161.67816
19990,0,-90,190,160.83954
20000,0,-90,200,160
20010,0,-90,210,159.15954
20020,0,-90,220,158.31816
20030,0,-90,230,157.47586
20040,0,-90,240,156.63264
20050,0,-90,250,155.7885
20060,0,-90,260,154.94344
20070,0,-90,270,154.09746
20080,0,-90,280,153.25056
20090,0,-90,290,152.40274
20100,0,-90,300,151.554
20110,0,-90,310,150.70434
20120,0,-90,320,149.85376
20130,0,-90,330,149.00226
20140,0,-90,340,148.14984
20150,0,-90,350,147.2965
20160,0,-90,0,146.44224
20170,0,-90,10,145.58706
20180,0,-90,20,144.73096
20190,0,-90,30,143.87394
20200,0,-90,40,143.016
20210,0,-90,50,142.15714
20220,0,-90,60,141.29736
20230,0,-90,70,140.43666
20240,0,-90,80,139.57504
20250,0,-90,90,138.7125
20260,0,-90,100,137.84904
20270,0,-90,110,136.98466
20280,0,-90,120,136.11936
20290,0,-90,130,135.25314
20300,0,-90,140,134.386
20310,0,-90,150,133.51794
20320,0,-90,160,132.64896
20330,0,-90,170,131.77906
20340,0,-90,180,130.90824
20350,0,-90,190,130.0365
20360,0,-90,200,129.16384
20370,0,-90,210,128.29026
20380,0,-90,220,127.41576
20390,0,-90,230,126.54034
20400,0,-90,240,125.664
20410,0,-90,250,124.78674
20420,0,-90,260,123.90856
20430,0,-90,270,123.02946
20440,0,-90,280,122.14944
20450,0,-90,290,121.2685
20460,0,-90,300,120.38664
20470,0,-90,310,119.50386
20480,0,-90,320,118.62016
20490,0,-90,330,117.73554
20500,0,-90,340,116.85
20510,0,-90,350,115.96354
20520,0,-90,0,115.07616
20530,0,-90,10,114.18786
20540,0,-90,20,113.29864
20550,0,-90,30,112.4085
20560,0,-90,40,111.51744
20570,0,-90,50,110.62546
20580,0,-90,60,109.73256
20590,0,-90,70,108.83874
20600,0,-90,80,107.944
20610,0,-90,90,107.04834
20620,0,-90,100,106.15176
20630,0,-90,110,105.25426
20640,0,-90,120,104.35584
20650,0,-90,130,103.4565
20660,0,-90,140,102.55624
20670,0,-90,150,101.65506
20680,0,-90,160,100.75296
20690,0,-90,170,99.84994
20700,0,-90,180,98.946
20710,0,-90,190,98.04114
20720,0,-90,200,97.13536
20730,0,-90,210,96.22866
20740,0,-90,220,95.32104
20750,0,-90,230,94.4125
20760,0,-90,240,93.50304
20770,0,-90,250,92.59266
20780,0,-90,260,91.68136
20790,0,-90,270,90.76914
20800,0,-90,280,89.856
20810,0,-90,290,88.94194
20820,0,-90,300,88.02696
20830,0,-90,310,87.11106
20840,0,-90,320,86.19424
20850,0,-90,330,85.2765
20860,0,-90,340,84.35784
20870,0,-90,350,83.43826
20880,0,-90,0,82.51776
20890,0,-90,10,81.59634
20900,0,-90,20,80.674
20910,0,-90,30,79.75074
20920,0,-90,40,78.82656
20930,0,-90,50,77.90146
20940,0,-90,60,76.97544
20950,0,-90,70,76.0485
20960,0,-90,80,75.12064
20970,0,-90,90,74.19186
20980,0,-90,100,73.26216
20990,0,-90,110,72.33154
21000,0,-90,120,71.4
21010,0,-90,130,70.46754
21020,0,-90,140,69.53416
21030,0,-90,150,68.59986
21040,0,-90,160,67.66464
21050,0,-90,170,66.7285
21060,0,-90,180,65.79144
21070,0,-90,190,64.85346
21080,0,-90,200,63.91456
21090,0,-90,210,62.97474
21100,0,-90,220,62.034
21110,0,-90,230,61.09234
21120,0,-90,240,60.14976
21130,0,-90,250,59.20626
21140,0,-90,260,58.26184
21150,0,-90,270,57.3165
21160,0,-90,280,56.37024
21170,0,-90,290,55.42306
21180,0,-90,300,54.47496
21190,0,-90,310,53.52594
21200,0,-90,320,52.576
21210,0,-90,330,51.62514
21220,0,-90,340,50.67336
21230,0,-90,350,49.72066
21240,0,-90,0,48.76704
21250,0,-90,10,47.8125
21260,0,-90,20,46.85704
21270,0,-90,30,45.90066
21280,0,-90,40,44.94336
21290,0,-90,50,43.98514
21300,0,-90,60,43.026
21310,0,-90,70,42.06594
21320,0,-90,80,41.10496
21330,0,-90,90,40.14306
21340,0,-90,100,39.18024
21350,0,-90,110,38.2165
21360,0,-90,120,37.25184
21370,0,-90,130,36.28626
21380,0,-90,140,35.31976
21390,0,-90,150,34.35234
21400,0,-90,160,33.384
21410,0,-90,170,32.41474
21420,0,-90,180,31.44456
21430,0,-90,190,30.47346
21440,0,-90,200,29.50144
21450,0,-90,210,28.5285
21460,0,-90,220,27.55464
21470,0,-90,230,26.57986
21480,0,-90,240,25.60416
21490,0,-90,250,24.62754
21500,0,-90,260,23.65
21510,0,-90,270,22.67154
21520,0,-90,280,21.69216
21530,0,-90,290,20.71186
21540,0,-90,300,19.73064
21550,0,-90,310,18.7485
21560,0,-90,320,17.76544
21570,0,-90,330,16.78146
21580,0,-90,340,15.79656
21590,0,-90,350,14.81074
21600,0,-90,0,13.824
21610,0,-90,10,12.83634
21620,0,-90,20,11.84776
21630,0,-90,30,10.85826
21640,0,-90,40,9.86784
21650,0,-90,50,8.8765
21660,0,-90,60,7.88424
21670,0,-90,70,6.89106
21680,0,-90,80,5.89696
21690,0,-90,90,4.90194
21700,0,-90,100,3.906
21710,0,-90,110,2.90914
21720,0,-90,120,1.91136
21730,0,-90,130,0.91266
